[
  {
    "name": "천리포해수욕장",
    "address": "대한민국 충청남도 태안군 소원면 의항리 978-7",
    "lat": 36.8019873,
    "lot": 126.1499038
  },
  {
    "name": "난지도 해수욕장",
    "address": "대한민국 충청남도 당진시 석문면 난지도리 665",
    "lat": 37.0467397,
    "lot": 126.4229861
  },
  {
    "name": "임랑해수욕장",
    "address": "대한민국 부산광역시 기장군 장안읍 임랑리 1-48",
    "lat": 35.3186849,
    "lot": 129.2654601
  },
  {
    "name": "몽여해변",
    "address": "대한민국 인천광역시 중구 무의동 849-2",
    "lat": 37.3731588,
    "lot": 126.4456289
  },
  {
    "name": "백리포해수욕장",
    "address": "대한민국 충청남도 태안군 소원면 의항리 488-1",
    "lat": 36.81205,
    "lot": 126.1543123
  },
  {
    "name": "꾸지나무골해수욕장",
    "address": "대한민국 충청남도 태안군 이원면 내리 산172",
    "lat": 36.9352262,
    "lot": 126.292429
  },
  {
    "name": "해운대 해수욕장",
    "address": "대한민국 부산광역시",
    "lat": 35.1576744,
    "lot": 129.1621473
  },
  {
    "name": "광안리해수욕장",
    "address": "대한민국 부산광역시",
    "lat": 35.1508871,
    "lot": 129.1190813
  },
  {
    "name": "낙산해수욕장",
    "address": "대한민국 강원도 양양군",
    "lat": 38.1154827,
    "lot": 128.6375117
  },
  {
    "name": "설악해수욕장",
    "address": "대한민국 강원도 양양군 강현면 동해대로 3254",
    "lat": 38.1300848,
    "lot": 128.6234731
  },
  {
    "name": "하조대 해수욕장",
    "address": "대한민국 강원도 양양군 현북면 하조대해안길 35",
    "lat": 38.0231112,
    "lot": 128.7253729
  },
  {
    "name": "일산해수욕장",
    "address": "대한민국 울산광역시 동구 일산동 860-13",
    "lat": 35.4956097,
    "lot": 129.4320786
  },
  {
    "name": "진하해수욕장",
    "address": "대한민국 울산광역시 울주군 서생면 진하해변길",
    "lat": 35.3834168,
    "lot": 129.3463184
  },
  {
    "name": "속초해변",
    "address": "대한민국 강원도 속초시 조양동 1466-19",
    "lat": 38.1882547,
    "lot": 128.6057462
  },
  {
    "name": "외옹치해변",
    "address": "대한민국 강원도 속초시 대포동 585-4",
    "lat": 38.1836684,
    "lot": 128.6089738
  },
  {
    "name": "청호해수욕장",
    "address": "대한민국 강원도 속초시 청호동 550-13",
    "lat": 38.2039399,
    "lot": 128.5951991
  },
  {
    "name": "물치해수욕장",
    "address": "대한민국 강원도 양양군 강현면 물치리 7-17",
    "lat": 38.1532368,
    "lot": 128.6088054
  },
  {
    "name": "정암해수욕장",
    "address": "대한민국 강원도 양양군 강현면 정암리 153-5",
    "lat": 38.1383171,
    "lot": 128.6166032
  },
  {
    "name": "함덕해수욕장",
    "address": "대한민국 제주특별자치도 제주시 조천읍 함덕리 산14-1",
    "lat": 33.5432311,
    "lot": 126.6698583
  },
  {
    "name": "덕포해수욕장",
    "address": "대한민국 경상남도 거제시 덕포동 365-15 덕포해수욕장",
    "lat": 34.9119346,
    "lot": 128.7121494
  },
  {
    "name": "우뭇개해안",
    "address": "대한민국 제주특별자치도 서귀포시 성산읍 성산리 104-1",
    "lat": 33.4619992,
    "lot": 126.9389048
  },
  {
    "name": "중문색달해수욕장",
    "address": "대한민국 제주특별자치도 서귀포시 색달동 3039-45",
    "lat": 33.2448506,
    "lot": 126.4103336
  },
  {
    "name": "돌틈이해수욕장",
    "address": "대한민국 경상남도 거제시 남부면 갈곶리 368",
    "lat": 34.7395925,
    "lot": 128.6559078
  },
  {
    "name": "구조라해수욕장",
    "address": "대한민국 경상남도 거제시 일운면 구조라리 500-1",
    "lat": 34.8081012,
    "lot": 128.6895749
  },
  {
    "name": "산호-홍조단괴-해빈",
    "address": "대한민국 제주특별자치도 제주시 우도면 연평리 2565-1",
    "lat": 33.5019104,
    "lot": 126.9427114
  },
  {
    "name": "사곡해수욕장",
    "address": "대한민국 경상남도 거제시 모래실길 19",
    "lat": 34.8989749,
    "lot": 128.5725581
  },
  {
    "name": "우도홍조단괴해변",
    "address": "대한민국 제주특별자치도 제주시 우도면 연평리 2469",
    "lat": 33.5050744,
    "lot": 126.9415002
  },
  {
    "name": "하고수동 해수욕장",
    "address": "대한민국 제주특별자치도 제주시 우도면 연평리 682-1",
    "lat": 33.5128476,
    "lot": 126.9590363
  },
  {
    "name": "마시안해변",
    "address": "대한민국 인천광역시 중구 마시란로 61",
    "lat": 37.4271023,
    "lot": 126.4181855
  },
  {
    "name": "검멀레 해수욕장",
    "address": "",
    "lat": 33.4972094,
    "lot": 126.9670787
  },
  {
    "name": "감지해변",
    "address": "대한민국 부산광역시 영도구 동삼동 1052-6",
    "lat": 35.0605541,
    "lot": 129.0765802
  },
  {
    "name": "돌목해변",
    "address": "대한민국 전라남도 진도군 조도면 가사도돌목길 205",
    "lat": 34.4701261,
    "lot": 126.0417857
  },
  {
    "name": "을왕리해수욕장",
    "address": "대한민국 인천광역시 중구 을왕로13번길 12",
    "lat": 37.4468109,
    "lot": 126.3716366
  },
  {
    "name": "왕산해수욕장",
    "address": "",
    "lat": 37.455389,
    "lot": 126.3678391
  },
  {
    "name": "무창포 해수욕장",
    "address": "대한민국 충청남도 보령시 웅천읍 관당리 833-4",
    "lat": 36.2434554,
    "lot": 126.5337321
  },
  {
    "name": "지리청송해변",
    "address": "대한민국 전라남도 완도군 청산면 지리 970-5",
    "lat": 34.1960407,
    "lot": 126.8612861
  },
  {
    "name": "곽지해수욕장야영장",
    "address": "대한민국 제주특별자치도 제주시 애월읍 곽지리 1565",
    "lat": 33.4512178,
    "lot": 126.3051439
  },
  {
    "name": "이호테우해변",
    "address": "대한민국 제주특별자치도 제주시 이호일동 1781-6",
    "lat": 33.4976683,
    "lot": 126.4518711
  },
  {
    "name": "모진이몽돌해변",
    "address": "대한민국 제주특별자치도 제주시 추자면 신양리 56-1",
    "lat": 33.9456712,
    "lot": 126.3346179
  },
  {
    "name": "남항진해변",
    "address": "대한민국 강원도 강릉시 공항길127번길 67",
    "lat": 37.7637144,
    "lot": 128.9555869
  },
  {
    "name": "남열 해돋이 해수욕장",
    "address": "대한민국 전라남도 고흥군 영남면 남열리 175-2",
    "lat": 34.5803171,
    "lot": 127.4874128
  },
  {
    "name": "월정리 해수욕장",
    "address": "대한민국 제주특별자치도 제주시 구좌읍 월정리 3-2",
    "lat": 33.5560608,
    "lot": 126.7968492
  },
  {
    "name": "제부도해수욕장",
    "address": "대한민국 경기도 화성시 서신면 제부리 190-291",
    "lat": 37.1656407,
    "lot": 126.6182363
  },
  {
    "name": "와현모래숲해수욕장",
    "address": "대한민국 경상남도 거제시 일운면 와현리 364-2",
    "lat": 34.8127918,
    "lot": 128.707378
  },
  {
    "name": "동명해수욕장",
    "address": "대한민국 강원도 강릉시 강동면 정동진리 460",
    "lat": 37.704078,
    "lot": 129.0175529
  },
  {
    "name": "옥계 해수욕장",
    "address": "대한민국 강원도 강릉시 옥계면 금진리 산105-7",
    "lat": 37.6302946,
    "lot": 129.0484225
  },
  {
    "name": "도작 해수욕장",
    "address": "대한민국 강원도 강릉시 옥계면 도직리 97-19",
    "lat": 37.6096425,
    "lot": 129.0684762
  },
  {
    "name": "망상 해수욕장",
    "address": "대한민국 강원도 동해시 동해대로 6270-27",
    "lat": 37.5942455,
    "lot": 129.090016
  },
  {
    "name": "노봉 해수욕장",
    "address": "대한민국 강원도 동해시 망상동 167-1",
    "lat": 37.5864581,
    "lot": 129.1017748
  },
  {
    "name": "맹방 해수욕장",
    "address": "대한민국 강원도 삼척시 근덕면 하맹방리 221-12",
    "lat": 37.3889411,
    "lot": 129.2348931
  },
  {
    "name": "원평 해수욕장",
    "address": "대한민국 강원도 삼척시 근덕면 매원리 81-6",
    "lat": 37.3196228,
    "lot": 129.272487
  },
  {
    "name": "용화 해수욕장",
    "address": "대한민국 강원도 삼척시 근덕면 용화리 14-5",
    "lat": 37.2905597,
    "lot": 129.3032144
  },
  {
    "name": "신남 해수욕장",
    "address": "대한민국 강원도 삼척시 원덕읍 갈남리 506-13",
    "lat": 37.2647497,
    "lot": 129.3273194
  },
  {
    "name": "덕신 해수욕장",
    "address": "대한민국 경상북도 울진군 매화면 덕신리 5-7",
    "lat": 36.8837336,
    "lot": 129.4164422
  },
  {
    "name": "망양 해수욕장",
    "address": "대한민국 경상북도 울진군 기성면 망양1길 9",
    "lat": 36.8426824,
    "lot": 129.4343808
  },
  {
    "name": "구산 해수욕장",
    "address": "대한민국 경상북도 울진군 기성면 구산리 333-26",
    "lat": 36.7527981,
    "lot": 129.4679578
  },
  {
    "name": "후포 해수욕장",
    "address": "대한민국 경상북도 울진군 후포면 삼율리 169-28",
    "lat": 36.6759646,
    "lot": 129.4441484
  },
  {
    "name": "덕천 해수욕장",
    "address": "대한민국 경상북도 영덕군 병곡면 덕천리 1-3",
    "lat": 36.5689705,
    "lot": 129.4225791
  },
  {
    "name": "망상해수욕장",
    "address": "대한민국 강원도 동해시 망상동 393-16",
    "lat": 37.597722,
    "lot": 129.082021
  },
  {
    "name": "진하해수욕장",
    "address": "대한민국 울산광역시 서생면 깨목4길 15 KR 울산광역시 울주군 진하리 84-11",
    "lat": 35.3829316,
    "lot": 129.3456758
  },
  {
    "name": "추암해수욕장",
    "address": "대한민국 강원도 동해시 추암동 474-16",
    "lat": 37.4781519,
    "lot": 129.1595965
  },
  {
    "name": "모항해수욕장",
    "address": "대한민국 전라북도 부안군 변산면 도청리 203-64",
    "lat": 35.5825881,
    "lot": 126.5074799
  },
  {
    "name": "협재 해수욕장",
    "address": "대한민국 제주특별자치도 제주시 한림읍 협재리 2447-45",
    "lat": 33.395112,
    "lot": 126.2402796
  },
  {
    "name": "송정해수욕장",
    "address": "대한민국 부산광역시 해운대구 송정해변로",
    "lat": 35.1804605,
    "lot": 129.203347
  },
  {
    "name": "변산해수욕장",
    "address": "대한민국 전라북도 부안군 변산면 대항리 528-3",
    "lat": 35.6803181,
    "lot": 126.5311291
  },
  {
    "name": "한재밑해수욕장",
    "address": "대한민국 강원도 삼척시 근덕면 상맹방리 산14-7",
    "lat": 37.4084958,
    "lot": 129.2053505
  },
  {
    "name": "신두리해수욕장",
    "address": "대한민국 충청남도 태안군 원북면 신두리 1221-65",
    "lat": 36.840777,
    "lot": 126.191123
  },
  {
    "name": "가마미해수욕장",
    "address": "대한민국 전라남도 영광군 홍농읍 계마리 799-1",
    "lat": 35.3989839,
    "lot": 126.4086855
  },
  {
    "name": "송도해수욕장",
    "address": "대한민국 경상북도 포항시 남구 송도동 378-438",
    "lat": 36.0355571,
    "lot": 129.3799037
  },
  {
    "name": "남일대해수욕장",
    "address": "대한민국 경상남도 사천시 향촌동 남일대길",
    "lat": 34.9265374,
    "lot": 128.0964862
  },
  {
    "name": "동호해수욕장",
    "address": "대한민국 강원도 양양군 손양면 동호리 1-133",
    "lat": 38.0575693,
    "lot": 128.6839299
  },
  {
    "name": "백사장해수욕장",
    "address": "대한민국 충청남도 태안군 안면읍 창기리 1269-101",
    "lat": 36.581281,
    "lot": 126.31328
  },
  {
    "name": "망양해수욕장",
    "address": "대한민국 경상북도 울진군 근남면 산포리 745-1",
    "lat": 36.9688104,
    "lot": 129.4126815
  },
  {
    "name": "맹방해수욕장",
    "address": "대한민국 강원도 삼척시 근덕면 하맹방리 221-9",
    "lat": 37.3905501,
    "lot": 129.2314907
  },
  {
    "name": "주문진해수욕장",
    "address": "강릉시 강원도 대한민국",
    "lat": 37.9094238,
    "lot": 128.821208
  },
  {
    "name": "춘장대해수욕장",
    "address": "대한민국 충청남도 서천군 서면 도둔리 1458-2",
    "lat": 36.1626967,
    "lot": 126.5226731
  },
  {
    "name": "용두해수욕장",
    "address": "대한민국 충청남도 보령시 남포면 용두욕장2길 22-6",
    "lat": 36.2631821,
    "lot": 126.5479723
  },
  {
    "name": "꾸지나무골해수욕장",
    "address": "대한민국 충청남도 태안군 이원면 내리 산172",
    "lat": 36.9353784,
    "lot": 126.2926422
  },
  {
    "name": "반암해수욕장",
    "address": "대한민국 강원도 고성군 거진읍 반암리 21-2",
    "lat": 38.420231,
    "lot": 128.464067
  },
  {
    "name": "도구해수욕장",
    "address": "대한민국 경상북도 포항시 남구 동해면 일월로81번길 36 도구 해수욕장",
    "lat": 35.9920614,
    "lot": 129.4427782
  },
  {
    "name": "한들해수욕장",
    "address": "대한민국 인천광역시 옹진군 북도면 장봉리 200-2",
    "lat": 37.5287682,
    "lot": 126.3470109
  },
  {
    "name": "백길해수욕장",
    "address": "대한민국 전라남도 신안군 자은면 유각리 683",
    "lat": 34.86263,
    "lot": 126.050462
  },
  {
    "name": "상록해수욕장",
    "address": "대한민국 전라북도 부안군 변산면 도청리 577-23",
    "lat": 35.6011968,
    "lot": 126.4805405
  },
  {
    "name": "만성리해수욕장",
    "address": "대한민국 전라남도 여수시 만흥동 60-4",
    "lat": 34.7769261,
    "lot": 127.7445926
  },
  {
    "name": "학암포해수욕장",
    "address": "대한민국 충청남도 태안군 원북면 방갈리 산37",
    "lat": 36.896965,
    "lot": 126.204283
  },
  {
    "name": "강구오포3리해수욕장",
    "address": "대한민국 경상북도 영덕군 강구면 강구해안길",
    "lat": 36.3565581,
    "lot": 129.388408
  },
  {
    "name": "무창포해수욕장",
    "address": "대한민국 충청남도 보령시 웅천읍 관당리 993",
    "lat": 36.2447836,
    "lot": 126.5360642
  },
  {
    "name": "장안해수욕장",
    "address": "대한민국 충청남도 보령시 웅천읍 소황리 683-1",
    "lat": 36.2003618,
    "lot": 126.5392138
  },
  {
    "name": "고사포해수욕장",
    "address": "대한민국 전라북도 부안군 변산면 운산리 441-5",
    "lat": 35.6599227,
    "lot": 126.5050623
  },
  {
    "name": "동호해수욕장",
    "address": "대한민국 전라북도 고창군 해리면 동호리 627-1",
    "lat": 35.5147167,
    "lot": 126.4817611
  },
  {
    "name": "송평해수욕장",
    "address": "대한민국 전라남도 해남군 화산면 평호리 496-4",
    "lat": 34.4358356,
    "lot": 126.4709893
  },
  {
    "name": "송호해수욕장",
    "address": "대한민국 전라남도 해남군 송지면 송호리 1034-12",
    "lat": 34.3132159,
    "lot": 126.5196639
  },
  {
    "name": "김녕해변",
    "address": "대한민국 제주특별자치도 제주시 구좌읍 해맞이해안로 9",
    "lat": 33.5576295,
    "lot": 126.7592206
  },
  {
    "name": "표선해비치해변",
    "address": "",
    "lat": 33.3278038,
    "lot": 126.8386479
  },
  {
    "name": "하도해변",
    "address": "대한민국 제주특별자치도 제주시 구좌읍 하도리 52-3",
    "lat": 33.5131031,
    "lot": 126.8994862
  },
  {
    "name": "경포해수욕장",
    "address": "대한민국 강원도 강릉시 강문동 산4-4",
    "lat": 37.803877,
    "lot": 128.9096851
  },
  {
    "name": "삼양검은모래 해변",
    "address": "대한민국 제주특별자치도 제주시 삼양일동 1569-50",
    "lat": 33.5264905,
    "lot": 126.5860204
  },
  {
    "name": "깊은금해수욕장",
    "address": "대한민국 전라북도 부안군 위도면 치도리 382-5",
    "lat": 35.5896618,
    "lot": 126.2706004
  },
  {
    "name": "용유해변",
    "address": "대한민국 인천광역시 중구 남북동 928-20",
    "lat": 37.4422985,
    "lot": 126.4002991
  },
  {
    "name": "나곡해수욕장",
    "address": "대한민국 경상북도 울진군 북면 나곡리 880",
    "lat": 37.1266178,
    "lot": 129.3712855
  },
  {
    "name": "문암해수욕장",
    "address": "대한민국 강원도 삼척시 근덕면 초곡리 257-10",
    "lat": 37.3090605,
    "lot": 129.2890802
  },
  {
    "name": "후정해수욕장",
    "address": "대한민국 경상북도 울진군 죽변면 후정리 53-27",
    "lat": 37.0704188,
    "lot": 129.4161635
  },
  {
    "name": "부구해수욕장",
    "address": "대한민국 경상북도 울진군 북면 부구리 163-63",
    "lat": 37.103832,
    "lot": 129.3765569
  },
  {
    "name": "고포해수욕장",
    "address": "대한민국 강원도 삼척시 원덕읍 월천리 2-1",
    "lat": 37.1487075,
    "lot": 129.3622862
  },
  {
    "name": "월천해수욕장",
    "address": "대한민국 강원도 삼척시 원덕읍 월천리 165-27",
    "lat": 37.1597349,
    "lot": 129.35566
  },
  {
    "name": "임원해수욕장",
    "address": "대한민국 강원도 삼척시 원덕읍 임원리 241-28",
    "lat": 37.2266924,
    "lot": 129.3414379
  },
  {
    "name": "통구미몽돌해변",
    "address": "",
    "lat": 37.4597431,
    "lot": 130.8652989
  },
  {
    "name": "삼척해수욕장",
    "address": "대한민국 강원도 삼척시 갈천동 14-12",
    "lat": 37.4682253,
    "lot": 129.16958
  },
  {
    "name": "증산해수욕장",
    "address": "대한민국 삼척시 증산동 30-4번지 삼척시 강원도 KR",
    "lat": 37.4743735,
    "lot": 129.1621189
  },
  {
    "name": "장호해수욕장",
    "address": "대한민국 강원도 삼척시 근덕면 장호리 300-1",
    "lat": 37.2861867,
    "lot": 129.3123394
  },
  {
    "name": "염전해변",
    "address": "대한민국 강원도 강릉시 강동면 하시동리 757-23",
    "lat": 37.7498854,
    "lot": 128.9738576
  },
  {
    "name": "어달해수욕장",
    "address": "대한민국 동해시 구어달동사무소",
    "lat": 37.568446,
    "lot": 129.1180069
  },
  {
    "name": "영일대 해수욕장",
    "address": "대한민국 경상북도 포항시 북구 두호동 1015",
    "lat": 36.0565144,
    "lot": 129.3792509
  },
  {
    "name": "오도리해변",
    "address": "대한민국 경상북도 포항시 북구 흥해읍 오도리 314-5",
    "lat": 36.1559047,
    "lot": 129.3987907
  },
  {
    "name": "오도앞바다",
    "address": "대한민국 경상북도 포항시 북구 흥해읍 오도리 151-3",
    "lat": 36.1608975,
    "lot": 129.3976326
  },
  {
    "name": "송도해수욕장",
    "address": "대한민국 부산광역시 서구 암남동 135-5",
    "lat": 35.0756374,
    "lot": 129.0188142
  },
  {
    "name": "다대포해수욕장",
    "address": "대한민국 부산광역시 사하구 다대동 다대로 680",
    "lat": 35.0466046,
    "lot": 128.9635267
  },
  {
    "name": "송정해수욕장",
    "address": "대한민국 부산광역시",
    "lat": 35.1752166,
    "lot": 129.201073
  },
  {
    "name": "일광해수욕장",
    "address": "대한민국 부산광역시 기장군 일광면 삼성리 116-21",
    "lat": 35.2610672,
    "lot": 129.2349779
  },
  {
    "name": "화진포해수욕장",
    "address": "대한민국 강원도 고성군 거진읍 화포리 1",
    "lat": 38.4781337,
    "lot": 128.4394377
  },
  {
    "name": "대전해수욕장",
    "address": "대한민국 전라남도 고흥군 두원면 대전리 37-14",
    "lat": 34.7145877,
    "lot": 127.2728435
  },
  {
    "name": "풍류해수욕장",
    "address": "대한민국 전라남도 고흥군 두원면 풍류리 680-1",
    "lat": 34.6645877,
    "lot": 127.2295636
  },
  {
    "name": "예내해변",
    "address": "대한민국 전라남도 고흥군 봉래면 하반로 483",
    "lat": 34.4547027,
    "lot": 127.5202234
  },
  {
    "name": "궁평리해수욕장",
    "address": "대한민국 경기도 화성시 서신면 궁평리 514-5",
    "lat": 37.1250751,
    "lot": 126.6827477
  },
  {
    "name": "율포솔밭해변",
    "address": "대한민국 전라남도 보성군 회천면 동율리 679",
    "lat": 34.6698138,
    "lot": 127.0906486
  },
  {
    "name": "죽림해수욕장",
    "address": "대한민국 경상남도 거제시 거제면 오수리 817-2",
    "lat": 34.8372,
    "lot": 128.5858577
  },
  {
    "name": "어반비치",
    "address": "대한민국 인천광역시 서구 청라동 106-2 플라워뮤직아일랜드",
    "lat": 37.5286725,
    "lot": 126.6329764
  },
  {
    "name": "만리포해수욕장",
    "address": "",
    "lat": 36.7883979,
    "lot": 126.1395672
  },
  {
    "name": "덕원해수욕장",
    "address": "대한민국 경상남도 거제시 동부면 가배리 13",
    "lat": 34.778674,
    "lot": 128.5766079
  },
  {
    "name": "정동진해변",
    "address": "대한민국 강원도 강릉시 강동면 정동진리 440-55",
    "lat": 37.6973862,
    "lot": 129.0271723
  },
  {
    "name": "물안해수욕장",
    "address": "대한민국 경상남도 거제시 하청면 어온리 13-12",
    "lat": 35.0109361,
    "lot": 128.6531768
  },
  {
    "name": "옥계해수욕장",
    "address": "대한민국 경상남도 거제시 하청면 연구리 산84-8",
    "lat": 34.9777118,
    "lot": 128.6305835
  },
  {
    "name": "만성리해수욕장",
    "address": "대한민국 전라남도 여수시 만흥동 만성리길 15-1",
    "lat": 34.7777265,
    "lot": 127.7462012
  },
  {
    "name": "흥남해수욕장",
    "address": "대한민국 경상남도 거제시 장목면 시방리 293-1",
    "lat": 34.9595027,
    "lot": 128.7159166
  },
  {
    "name": "어머리해변",
    "address": "",
    "lat": 35.0514701,
    "lot": 126.0925304
  },
  {
    "name": "농소몽돌해수욕장",
    "address": "대한민국 경상남도 거제시 장목면 농소리 886",
    "lat": 35.0073724,
    "lot": 128.7035759
  },
  {
    "name": "금당화해변",
    "address": "대한민국 전라남도 고흥군",
    "lat": 34.3315726,
    "lot": 127.062179
  },
  {
    "name": "구영해수욕장",
    "address": "대한민국 경상남도 거제시 장목면 구영리 367",
    "lat": 35.0312039,
    "lot": 128.6911659
  },
  {
    "name": "황포해수욕장",
    "address": "대한민국 경상남도 거제시 장목면 구영리 1174-3",
    "lat": 35.0206613,
    "lot": 128.6747903
  },
  {
    "name": "여차몽돌해수욕장",
    "address": "대한민국 경상남도 거제시 남부면 다포리 53-8",
    "lat": 34.7135877,
    "lot": 128.6267139
  },
  {
    "name": "명사해수욕장",
    "address": "대한민국 경상남도 거제시 남부면 저구리 265-9",
    "lat": 34.727185,
    "lot": 128.603879
  },
  {
    "name": "사도해변",
    "address": "대한민국 전라남도 여수시 화정면 낭도리 210-11",
    "lat": 34.5918279,
    "lot": 127.5561087
  },
  {
    "name": "사도 신비의바닷길",
    "address": "대한민국 전라남도 고흥군",
    "lat": 34.5880054,
    "lot": 127.5613665
  },
  {
    "name": "신전해수욕장",
    "address": "대한민국 전라남도 진도군 조도면 신육리 산121",
    "lat": 34.2841036,
    "lot": 126.0743016
  },
  {
    "name": "봉길대왕암해변",
    "address": "대한민국 경상북도 경주시 문무대왕면 봉길리 26-2",
    "lat": 35.7402807,
    "lot": 129.4838229
  },
  {
    "name": "나정고운모래해변",
    "address": "대한민국 경상북도 경주시 감포읍 나정리 633-1",
    "lat": 35.7834506,
    "lot": 129.4915098
  },
  {
    "name": "전촌솔밭해변",
    "address": "대한민국 경상북도 경주시 감포읍 전촌리 1279",
    "lat": 35.7873178,
    "lot": 129.4917869
  },
  {
    "name": "나아해변",
    "address": "대한민국 경상북도 경주시",
    "lat": 35.7031298,
    "lot": 129.4736901
  },
  {
    "name": "동막해변",
    "address": "대한민국 인천광역시 강화군 화도면 동막리",
    "lat": 37.5921759,
    "lot": 126.4580297
  },
  {
    "name": "민머루해변",
    "address": "대한민국 인천광역시 강화군 삼산면 매음리 871-3",
    "lat": 37.6505514,
    "lot": 126.3337723
  },
  {
    "name": "천진해변",
    "address": "대한민국 강원도 고성군 토성면 천진리 11-6",
    "lat": 38.258256,
    "lot": 128.5605906
  },
  {
    "name": "봉포해변",
    "address": "대한민국 강원도 고성군 토성면 봉포리 286-7",
    "lat": 38.2544652,
    "lot": 128.5635914
  },
  {
    "name": "청간해변",
    "address": "대한민국 강원도 고성군 토성면 청간리 46-36",
    "lat": 38.2677223,
    "lot": 128.557305
  },
  {
    "name": "아야진해변",
    "address": "대한민국 강원도 고성군 토성면 아야진리 233",
    "lat": 38.2768888,
    "lot": 128.5534182
  },
  {
    "name": "교암리해변",
    "address": "대한민국 강원도 고성군 토성면 교암리 1-50",
    "lat": 38.2926944,
    "lot": 128.5480594
  },
  {
    "name": "백도해변",
    "address": "대한민국 강원도 고성군 죽왕면 문암항길 133",
    "lat": 38.2998786,
    "lot": 128.5469193
  },
  {
    "name": "문암해변",
    "address": "대한민국 강원도 고성군 죽왕면 문암진리 134-5",
    "lat": 38.2969836,
    "lot": 128.548201
  },
  {
    "name": "자작도해변",
    "address": "대한민국 강원도 고성군 죽왕면 문암진리 460-74",
    "lat": 38.3085803,
    "lot": 128.5430576
  },
  {
    "name": "삼포해수욕장",
    "address": "대한민국 강원도 고성군",
    "lat": 38.3152324,
    "lot": 128.536709
  },
  {
    "name": "봉수대해수욕장",
    "address": "대한민국 강원도 고성군 죽왕면 오호리 68-23",
    "lat": 38.3227686,
    "lot": 128.5282664
  },
  {
    "name": "송지호해수욕장",
    "address": "대한민국 강원도 고성군",
    "lat": 38.3408497,
    "lot": 128.5197023
  },
  {
    "name": "공현진해변",
    "address": "대한민국 강원도 고성군 죽왕면 공현진리 431-8",
    "lat": 38.3593342,
    "lot": 128.5089901
  },
  {
    "name": "실미도해변",
    "address": "대한민국 인천광역시 중구 무의동 768-13",
    "lat": 37.4034718,
    "lot": 126.4026237
  },
  {
    "name": "하나개해변",
    "address": "대한민국 인천광역시 중구 무의동 산187-8",
    "lat": 37.3858419,
    "lot": 126.4088933
  },
  {
    "name": "십리포해변",
    "address": "대한민국 인천광역시 옹진군 영흥면 내리 724-97",
    "lat": 37.2819672,
    "lot": 126.4851201
  },
  {
    "name": "장경리해변",
    "address": "대한민국 인천광역시 옹진군 영흥면 내리 1672-6",
    "lat": 37.2737695,
    "lot": 126.4500134
  },
  {
    "name": "가진해변",
    "address": "대한민국 강원도 고성군 죽왕면 가진리 168-1",
    "lat": 38.3738929,
    "lot": 128.5091656
  },
  {
    "name": "관성솔밭해변",
    "address": "대한민국 경주시 양남면 수렴리 425-20번지 경주시 경상북도 KR",
    "lat": 35.6608759,
    "lot": 129.4524173
  },
  {
    "name": "오류고아라해변",
    "address": "대한민국 경상북도 경주시 감포읍 오류리 297-7",
    "lat": 35.8210982,
    "lot": 129.5104342
  },
  {
    "name": "양포해변",
    "address": "대한민국 경상북도 포항시 남구 장기면 동해안로3248번길 28",
    "lat": 35.8749665,
    "lot": 129.5184741
  },
  {
    "name": "구룡포해변",
    "address": "대한민국 경상북도 포항시 남구 구룡포읍 구룡포리 9-36",
    "lat": 35.9971469,
    "lot": 129.5668203
  },
  {
    "name": "삼정해변",
    "address": "대한민국 경상북도 포항시 남구 구룡포읍 일출로72번길 14-10",
    "lat": 36.0029166,
    "lot": 129.5717583
  },
  {
    "name": "송도해변",
    "address": "대한민국 경상북도 포항시 남구 송도동 378-447",
    "lat": 36.0328837,
    "lot": 129.382229
  },
  {
    "name": "칠포해변",
    "address": "대한민국 경상북도 포항시 북구 흥해읍 칠포리 197-33",
    "lat": 36.1321692,
    "lot": 129.4001393
  },
  {
    "name": "월포해변",
    "address": "대한민국 경상북도 포항시",
    "lat": 36.1998941,
    "lot": 129.3732496
  },
  {
    "name": "조사리해변",
    "address": "대한민국 경상북도 포항시 북구 송라면 해안로 2758",
    "lat": 36.2279504,
    "lot": 129.3819674
  },
  {
    "name": "화진해변",
    "address": "대한민국 경상북도 포항시 북구 송라면 지경리 226",
    "lat": 36.2498789,
    "lot": 129.3755365
  },
  {
    "name": "장사해변",
    "address": "대한민국 경상북도 영덕군 남정면 장사리 67-66",
    "lat": 36.2836229,
    "lot": 129.3763822
  },
  {
    "name": "남호해변",
    "address": "대한민국 경상북도 영덕군 남정면 남호리 19-4",
    "lat": 36.3281489,
    "lot": 129.3800925
  },
  {
    "name": "광치기해변",
    "address": "대한민국 제주특별자치도 서귀포시 성산읍 고성리 224-2",
    "lat": 33.4538483,
    "lot": 126.9258314
  },
  {
    "name": "하모해수욕장",
    "address": "대한민국 제주특별자치도 서귀포시 대정읍 하모리 625-12",
    "lat": 33.2111466,
    "lot": 126.260431
  },
  {
    "name": "거문도해수욕장",
    "address": "대한민국 전라남도 여수시 삼산면 덕촌리 349-1",
    "lat": 34.0194397,
    "lot": 127.3043641
  },
  {
    "name": "동개해수욕장",
    "address": "대한민국 전라남도 신안군 흑산면 가거도리 136",
    "lat": 34.0495021,
    "lot": 125.1318631
  },
  {
    "name": "배낭기미해변",
    "address": "대한민국 전라남도 신안군 흑산면 진리 586-1",
    "lat": 34.6892176,
    "lot": 125.4271692
  },
  {
    "name": "관매도해변",
    "address": "",
    "lat": 34.2433086,
    "lot": 126.0506205
  },
  {
    "name": "대천해수욕장",
    "address": "대한민국 충청남도 보령시 신흑동 1181-3",
    "lat": 36.3112465,
    "lot": 126.511308
  },
  {
    "name": "사계해안",
    "address": "대한민국 서귀포시 화순파출소사계출장소",
    "lat": 33.2245706,
    "lot": 126.2993456
  },
  {
    "name": "세화해변",
    "address": "대한민국 제주특별자치도 제주시 구좌읍 세화리 1477-48",
    "lat": 33.5250276,
    "lot": 126.8604063
  },
  {
    "name": "궁항해변",
    "address": "대한민국 전라남도 진도군 조도면 가사도리 33-1",
    "lat": 34.4779884,
    "lot": 126.0643859
  },
  {
    "name": "황성금리해수욕장",
    "address": "대한민국 전라남도 신안군 신의면 하태서리 산151-1",
    "lat": 34.5342837,
    "lot": 126.0566024
  },
  {
    "name": "신도해수욕장",
    "address": "대한민국 전라남도 신안군 하의면 능산리 876",
    "lat": 34.5886217,
    "lot": 125.9732518
  },
  {
    "name": "신양섭지해변",
    "address": "대한민국 제주특별자치도 서귀포시 성산읍 섭지코지로 88",
    "lat": 33.4347343,
    "lot": 126.9233094
  },
  {
    "name": "돈목해수욕장",
    "address": "대한민국 전라남도 신안군 도초면 우이도리 산382-4",
    "lat": 34.6084042,
    "lot": 125.8278209
  },
  {
    "name": "성촌해변",
    "address": "",
    "lat": 34.6148739,
    "lot": 125.8258692
  },
  {
    "name": "띠밭넘어해변",
    "address": "",
    "lat": 34.6220985,
    "lot": 125.8387053
  },
  {
    "name": "해피플레이스애견비치",
    "address": "대한민국 강원도 양양군 현북면 잔교리 41-10",
    "lat": 38.0041175,
    "lot": 128.7333
  },
  {
    "name": "송이도해수욕장",
    "address": "대한민국 전라남도 영광군 낙월면 송이리 1-36",
    "lat": 35.2746014,
    "lot": 126.1516923
  },
  {
    "name": "옥돌해수욕장",
    "address": "대한민국 전라북도 군산시 옥도면 선유도리 15",
    "lat": 35.8075259,
    "lot": 126.4098508
  },
  {
    "name": "선유도해수욕장",
    "address": "",
    "lat": 35.8182274,
    "lot": 126.4112032
  },
  {
    "name": "강문해변",
    "address": "대한민국 강원도 강릉시 강문동 182-36",
    "lat": 37.7958401,
    "lot": 128.9184981
  },
  {
    "name": "사근진해수욕장",
    "address": "대한민국 강원도 강릉시 해안로604번길 16",
    "lat": 37.812569,
    "lot": 128.8988371
  },
  {
    "name": "추포해수욕장",
    "address": "대한민국 전라남도 신안군 암태면 수곡리 1002-2",
    "lat": 34.8047009,
    "lot": 126.0667716
  },
  {
    "name": "안목해수욕장",
    "address": "대한민국 강원도 강릉시 창해로14번길 24",
    "lat": 37.7726972,
    "lot": 128.9477772
  },
  {
    "name": "신흥해수욕장",
    "address": "대한민국 전라남도 완도군 청산면 신흥리 578-4",
    "lat": 34.1836604,
    "lot": 126.9078188
  },
  {
    "name": "매도",
    "address": "대한민국 인천광역시 서구 오류동 산225",
    "lat": 37.568619,
    "lot": 126.5856372
  },
  {
    "name": "모래구미해수욕장",
    "address": "대한민국 전라남도 신안군 하의면 어은리 482-3",
    "lat": 34.5777805,
    "lot": 126.0204615
  },
  {
    "name": "시목해수욕장",
    "address": "",
    "lat": 34.6711257,
    "lot": 125.9529802
  },
  {
    "name": "백길해변",
    "address": "대한민국 전라남도 신안군 자은면 자은서부1길 163-119",
    "lat": 34.8494289,
    "lot": 126.0390659
  },
  {
    "name": "면전해변",
    "address": "",
    "lat": 34.8562699,
    "lot": 126.0304504
  },
  {
    "name": "한강백사장",
    "address": "대한민국 서울특별시 송파구 잠실동 1",
    "lat": 37.5179396,
    "lot": 127.0833936
  },
  {
    "name": "팔미도 해수욕장",
    "address": "대한민국 인천광역시 중구 무의동 산375-2",
    "lat": 37.3598916,
    "lot": 126.5135843
  },
  {
    "name": "낭도해수욕장",
    "address": "대한민국 전라남도 여수시 화정면 낭도리 572",
    "lat": 34.6004725,
    "lot": 127.5400311
  },
  {
    "name": "장사금해수욕장",
    "address": "대한민국 전라남도 여수시 화정면 낭도리 496",
    "lat": 34.6001369,
    "lot": 127.5500089
  },
  {
    "name": "위도해수욕장",
    "address": "",
    "lat": 35.6051815,
    "lot": 126.2820262
  },
  {
    "name": "진해 오션 리조트",
    "address": "대한민국 경상남도 창원시",
    "lat": 35.0888135,
    "lot": 128.7444274
  },
  {
    "name": "명사의해변",
    "address": "대한민국 인천광역시 중구 용유동 산370",
    "lat": 37.3708504,
    "lot": 126.4446882
  },
  {
    "name": "덕산해변",
    "address": "대한민국 강원도 삼척시 근덕면 덕산리 82-1",
    "lat": 37.3838083,
    "lot": 129.2454897
  },
  {
    "name": "문갑해수욕장",
    "address": "대한민국 인천광역시 옹진군 덕적면 문갑리 43-2",
    "lat": 37.1744609,
    "lot": 126.1078518
  },
  {
    "name": "쏠비치 양양",
    "address": "대한민국 강원도 양양군 손양면 선사유적로 678",
    "lat": 38.0874144,
    "lot": 128.6655308
  },
  {
    "name": "쏠비치삼척",
    "address": "대한민국 강원도 삼척시 수로부인길 453",
    "lat": 37.4711868,
    "lot": 129.1638904
  },
  {
    "name": "쏠비치진도",
    "address": "대한민국 전라남도 진도군 의신면 초사리 1206",
    "lat": 34.4000445,
    "lot": 126.32768
  },
  {
    "name": "연대도해변",
    "address": "대한민국 경상남도 통영시 산양읍 연곡리 58-13",
    "lat": 34.7343334,
    "lot": 128.3959354
  },
  {
    "name": "죽도해변",
    "address": "대한민국 강원도 양양군 현남면 두리 10-13",
    "lat": 37.9755022,
    "lot": 128.760359
  },
  {
    "name": "오션투유리조트",
    "address": "대한민국 강원도 고성군 죽왕면 삼포리 243-13",
    "lat": 38.3171095,
    "lot": 128.5309805
  },
  {
    "name": "한들해수욕장",
    "address": "대한민국 인천광역시 옹진군 북도면 장봉리 200-1 한들해수욕장",
    "lat": 37.5280363,
    "lot": 126.345175
  },
  {
    "name": "당너머해수욕장",
    "address": "대한민국 충청남도 보령시 오천면 장고도1길 73-38",
    "lat": 36.3959521,
    "lot": 126.3349824
  },
  {
    "name": "꽃지해수욕장",
    "address": "대한민국 충청남도 홍성군",
    "lat": 36.4876463,
    "lot": 126.3342102
  },
  {
    "name": "방포해수욕장",
    "address": "대한민국 충청남도 태안군 안면읍 승언리 339-357",
    "lat": 36.5091179,
    "lot": 126.3321598
  },
  {
    "name": "하평해변",
    "address": "대한민국 강원도 동해시 평릉동 83-10",
    "lat": 37.5343877,
    "lot": 129.1160488
  },
  {
    "name": "고불개해변",
    "address": "대한민국 강원도 동해시 한섬해안길 104",
    "lat": 37.5277891,
    "lot": 129.1223875
  },
  {
    "name": "한섬해수욕장",
    "address": "대한민국 강원도 동해시 천곡동 45-3",
    "lat": 37.518921,
    "lot": 129.123162
  },
  {
    "name": "방죽포 해수욕장",
    "address": "대한민국 전라남도 여수시 돌산읍 죽포리 308-2",
    "lat": 34.630765,
    "lot": 127.7936967
  },
  {
    "name": "자갈개",
    "address": "대한민국 부산광역시 강서구 대항동 184-18",
    "lat": 35.0066281,
    "lot": 128.8235689
  },
  {
    "name": "자갈개",
    "address": "대한민국 외양포",
    "lat": 35.0050764,
    "lot": 128.8236162
  },
  {
    "name": "망양정해수욕장",
    "address": "대한민국 경상북도 울진군 근남면 산포리 745-1",
    "lat": 36.9695597,
    "lot": 129.4123565
  },
  {
    "name": "구산해수욕장",
    "address": "대한민국 경상북도 울진군 기성면 구산리 산73-1",
    "lat": 36.7522682,
    "lot": 129.4688127
  },
  {
    "name": "고래불해수욕장",
    "address": "대한민국 경상북도 영덕군",
    "lat": 36.5973052,
    "lot": 129.4116113
  },
  {
    "name": "원산도해수욕장",
    "address": "대한민국 충청남도 보령시 오천면 원산도리 1860-13",
    "lat": 36.3628302,
    "lot": 126.4287138
  },
  {
    "name": "대탄해수욕장",
    "address": "대한민국 경상북도 영덕군 영덕읍 대탄리 26-6",
    "lat": 36.4367101,
    "lot": 129.4330049
  },
  {
    "name": "오보해수욕장",
    "address": "대한민국 경상북도 영덕군 영덕읍 오보리 134-1",
    "lat": 36.4411976,
    "lot": 129.4329638
  },
  {
    "name": "경정해수욕장",
    "address": "대한민국 경상북도 영덕군 축산면 경정리 426-1",
    "lat": 36.4815509,
    "lot": 129.4332878
  },
  {
    "name": "대진해수욕장",
    "address": "대한민국 경상북도 영덕군 영해면 대진리 426-7",
    "lat": 36.5654541,
    "lot": 129.4263861
  },
  {
    "name": "덕천해수욕장",
    "address": "대한민국 경상북도 영덕군 병곡면 고래불로 68",
    "lat": 36.5707481,
    "lot": 129.4209542
  },
  {
    "name": "영리해수욕장",
    "address": "대한민국 경상북도 영덕군 병곡면 영리 155-1",
    "lat": 36.5903664,
    "lot": 129.4106956
  },
  {
    "name": "후포해수욕장",
    "address": "대한민국 경상북도 울진군 후포면 삼율리 169-28",
    "lat": 36.6757991,
    "lot": 129.44446
  },
  {
    "name": "기성망양해수욕장",
    "address": "대한민국 경상북도 울진군 기성면 망양리 140-3",
    "lat": 36.8424395,
    "lot": 129.4352389
  },
  {
    "name": "덕신해수욕장",
    "address": "대한민국 경상북도 울진군 매화면 덕신1길 20-8",
    "lat": 36.8844911,
    "lot": 129.4167648
  },
  {
    "name": "염전해수욕장",
    "address": "대한민국 경상북도 울진군 근남면 수산리 76",
    "lat": 36.9740554,
    "lot": 129.4101141
  },
  {
    "name": "봉평해수욕장",
    "address": "대한민국 경상북도 울진군 죽변면 봉평리 97-9",
    "lat": 37.0435765,
    "lot": 129.4136994
  },
  {
    "name": "부구해수욕장",
    "address": "대한민국 경상북도 울진군 북면 부구리 163-63",
    "lat": 37.1036264,
    "lot": 129.3769874
  },
  {
    "name": "나곡해수욕장",
    "address": "대한민국 경상북도 울진군 북면 나실길 20-15",
    "lat": 37.1263317,
    "lot": 129.3715967
  },
  {
    "name": "오포3리해수욕장",
    "address": "대한민국 경상북도 영덕군 강구면 강구해안길",
    "lat": 36.3565467,
    "lot": 129.3889337
  },
  {
    "name": "화순금모래해수욕장",
    "address": "대한민국 제주특별자치도 서귀포시 안덕면 화순해안로 66-13",
    "lat": 33.2403847,
    "lot": 126.3325046
  },
  {
    "name": "황우치 해변",
    "address": "대한민국 제주특별자치도 서귀포시 안덕면 사계리 92",
    "lat": 33.2375423,
    "lot": 126.3180647
  },
  {
    "name": "오션밸리 리조트",
    "address": "대한민국 강원도 양양군 양양읍 일출로 127-30",
    "lat": 38.1104526,
    "lot": 128.6400089
  },
  {
    "name": "격포해수욕장",
    "address": "대한민국 전라북도 부안군 변산면 격포리 282-21 변산반도국립공원 격포 지구",
    "lat": 35.6287629,
    "lot": 126.4699042
  },
  {
    "name": "후포해변",
    "address": "대한민국 제주특별자치도 제주시 추자면 대서리 268",
    "lat": 33.9626564,
    "lot": 126.289218
  },
  {
    "name": "이금포해변",
    "address": "대한민국 전라남도 여수시 삼산면 서도리 67",
    "lat": 34.0559642,
    "lot": 127.2952318
  },
  {
    "name": "사근진해변",
    "address": "대한민국 강원도 강릉시 해안로604번길 18",
    "lat": 37.8128204,
    "lot": 128.8987427
  },
  {
    "name": "권덕리해변",
    "address": "대한민국 전라남도 완도군 청산면 읍리 158-6",
    "lat": 34.1550376,
    "lot": 126.8813717
  },
  {
    "name": "협곡몽돌해변",
    "address": "대한민국 전라남도 신안군 흑산면 가거도리 산95-9",
    "lat": 34.0713855,
    "lot": 125.09629
  },
  {
    "name": "서랑비치",
    "address": "대한민국 인천광역시 옹진군 덕적면 서포리 95-2",
    "lat": 37.2167407,
    "lot": 126.1162568
  },
  {
    "name": "논짓물해변",
    "address": "대한민국 제주특별자치도 서귀포시 하예동 568",
    "lat": 33.2372508,
    "lot": 126.389489
  },
  {
    "name": "금능 해수욕장 야영장",
    "address": "대한민국 제주특별자치도 제주시 한림읍 협재리 2498",
    "lat": 33.3918426,
    "lot": 126.2383923
  },
  {
    "name": "곽지과물",
    "address": "곽지과 물, 대한민국",
    "lat": 33.451343,
    "lot": 126.3046849
  },
  {
    "name": "내도몽돌해변",
    "address": "대한민국 제주특별자치도 제주시 내도동 515-1",
    "lat": 33.4959359,
    "lot": 126.4396111
  },
  {
    "name": "학포항",
    "address": "대한민국 경상북도 울릉군 서면 태하리 376-3",
    "lat": 37.503753,
    "lot": 130.8048936
  },
  {
    "name": "속초해수욕장",
    "address": "대한민국 강원도 속초시 조양동 해오름로 186",
    "lat": 38.1909848,
    "lot": 128.6034883
  },
  {
    "name": "게우지코지",
    "address": "대한민국 제주특별자치도 서귀포시 하효동 1371-2",
    "lat": 33.2440809,
    "lot": 126.6196131
  },
  {
    "name": "생이돌",
    "address": "대한민국 제주특별자치도 서귀포시 하효동 1371-2",
    "lat": 33.2438933,
    "lot": 126.6194282
  },
  {
    "name": "볼레낭개",
    "address": "대한민국 제주특별자치도 서귀포시 보목동 570",
    "lat": 33.2393325,
    "lot": 126.6051566
  },
  {
    "name": "앞개",
    "address": "대한민국 제주특별자치도 서귀포시 보목동 보목로70번길 8",
    "lat": 33.2385203,
    "lot": 126.60292
  },
  {
    "name": "앞바당",
    "address": "대한민국 제주특별자치도 서귀포시 보목동 보목로70번길 8",
    "lat": 33.2381191,
    "lot": 126.6031036
  },
  {
    "name": "섬도코지",
    "address": "대한민국 제주특별자치도 서귀포시 보목동 1348-8",
    "lat": 33.2352407,
    "lot": 126.5987641
  },
  {
    "name": "황개",
    "address": "대한민국 제주특별자치도 서귀포시 보목동 1396",
    "lat": 33.2379142,
    "lot": 126.5926722
  },
  {
    "name": "소렛개",
    "address": "대한민국 제주특별자치도 서귀포시 보목동 1401-1",
    "lat": 33.2407089,
    "lot": 126.5918455
  },
  {
    "name": "갯늪",
    "address": "대한민국 제주특별자치도 서귀포시 표선면 표선리 4",
    "lat": 33.3241669,
    "lot": 126.8460168
  },
  {
    "name": "소금막해변",
    "address": "대한민국 제주특별자치도 서귀포시 표선면 하천리 87-2",
    "lat": 33.3311832,
    "lot": 126.8424684
  },
  {
    "name": "가마리개",
    "address": "대한민국 제주특별자치도 서귀포시 표선면 세화리 240-5",
    "lat": 33.3047356,
    "lot": 126.8051071
  },
  {
    "name": "가는개",
    "address": "대한민국 제주특별자치도 서귀포시 표선면 세화리 1563-1",
    "lat": 33.3043336,
    "lot": 126.7940721
  },
  {
    "name": "선녀탕",
    "address": "대한민국 제주특별자치도 서귀포시 서홍동 2593",
    "lat": 33.2395251,
    "lot": 126.5489082
  },
  {
    "name": "돔베낭골",
    "address": "대한민국 제주특별자치도 서귀포시 호근동 1608-6",
    "lat": 33.2393972,
    "lot": 126.5334672
  },
  {
    "name": "물건해수욕장",
    "address": "대한민국 경상남도 남해군 삼동면 물건리 46",
    "lat": 34.7982094,
    "lot": 128.0510996
  },
  {
    "name": "용담리해수욕장",
    "address": "대한민국 인천광역시 옹진군 영흥면 외리 247-88",
    "lat": 37.2387571,
    "lot": 126.4703079
  },
  {
    "name": "장골해변",
    "address": "대한민국 인천광역시 옹진군 자월면 자월서로 94",
    "lat": 37.2495483,
    "lot": 126.3130493
  },
  {
    "name": "큰말해수욕장",
    "address": "대한민국 인천광역시 옹진군 자월면 자월리 1116-3",
    "lat": 37.252786,
    "lot": 126.3057884
  },
  {
    "name": "큰가마골해수욕장",
    "address": "대한민국 전라남도 영광군 낙월면 하낙월리 산39",
    "lat": 35.1999981,
    "lot": 126.1293272
  },
  {
    "name": "화암방파제",
    "address": "대한민국 울산광역시 동구 방어동 955-1",
    "lat": 35.471408,
    "lot": 129.4049603
  },
  {
    "name": "옹암해수욕장",
    "address": "대한민국 인천광역시 옹진군 북도면 장봉리 59-13",
    "lat": 37.5297947,
    "lot": 126.3721284
  },
  {
    "name": "모상개해수욕장",
    "address": "대한민국 경상남도 남해군 흥선로1505번길 65-110 KR",
    "lat": 34.8396856,
    "lot": 128.0757542
  },
  {
    "name": "대광 해수욕장",
    "address": "대한민국 전라남도 신안군 임자면 대기리 2523-6",
    "lat": 35.1034287,
    "lot": 126.0726675
  },
  {
    "name": "톱머리해수욕장",
    "address": "대한민국 전라남도 무안군 망운면 피서리 809-33",
    "lat": 34.9670976,
    "lot": 126.3896518
  },
  {
    "name": "돌머리해수욕장",
    "address": "대한민국 전라남도 함평군 함평읍 석성리 산223-4",
    "lat": 35.0853737,
    "lot": 126.4381977
  },
  {
    "name": "명장섬해수욕장",
    "address": "대한민국 충청남도 보령시 오천면 삽시도리 439-6",
    "lat": 36.4012892,
    "lot": 126.3450874
  },
  {
    "name": "고파도해수욕장",
    "address": "대한민국 충청남도 서산시 팔봉면 고파도1길 21",
    "lat": 36.9094598,
    "lot": 126.3379717
  },
  {
    "name": "상맹방해수욕장",
    "address": "대한민국 강원도 삼척시 근덕면 상맹방리 466-12",
    "lat": 37.4032408,
    "lot": 129.2116069
  },
  {
    "name": "부남해수욕장",
    "address": "대한민국 강원도 삼척시 근덕면 부남리 84-1",
    "lat": 37.3624357,
    "lot": 129.2513058
  },
  {
    "name": "새비지들",
    "address": "대한민국 부산광역시 강서구 눌차동 141-6",
    "lat": 35.0605975,
    "lot": 128.8462356
  },
  {
    "name": "탕수구미",
    "address": "대한민국 부산광역시",
    "lat": 35.063223,
    "lot": 128.8549343
  },
  {
    "name": "봉평해수욕장",
    "address": "대한민국 경상북도 울진군 죽변면 울진북로 1180",
    "lat": 37.0438604,
    "lot": 129.4133914
  },
  {
    "name": "저두해수욕장",
    "address": "대한민국 충청남도 보령시 오천면 원산도리 142-3",
    "lat": 36.3574591,
    "lot": 126.4533855
  },
  {
    "name": "원산도해수욕장",
    "address": "대한민국 충청남도 보령시 오천면 원산도리 1859-1",
    "lat": 36.3633043,
    "lot": 126.4275435
  }
]
