{
  "beaches": [
    {
      "name": "송도해수욕장",
      "address": "부산광역시 서구 암남동 135-5",
      "lat": 35.078336,
      "lot": 129.022711
    },
    {
      "name": "송정해수욕장",
      "address": "부산광역시 해운대구 송정동",
      "lat": 35.185172,
      "lot": 129.199784
    },
    {
      "name": "해운대해수욕장",
      "address": "부산광역시 해운대구 우1동, 중1동",
      "lat": 35.158698,
      "lot": 129.160384
    },
    {
      "name": "다대포해수욕장",
      "address": "부산광역시 사하구 다대동 482-3",
      "lat": 35.046919,
      "lot": 128.967196
    },
    {
      "name": "광안리해수욕장",
      "address": "부산광역시 수영구 관안동 282-3번지외 12선",
      "lat": 35.153293,
      "lot": 129.118684
    },
    {
      "name": "일광해수욕장",
      "address": "부산광역시 기장군 일광읍 삼성리",
      "lat": 35.265453,
      "lot": 129.236576
    },
    {
      "name": "임랑해수욕장",
      "address": "부산광역시 기장군 장안읍 임랑리",
      "lat": 35.288785,
      "lot": 129.267594
    },
    {
      "name": "실미해수욕장",
      "address": "인천광역시 중구 무의동 768,729",
      "lat": 37.39605,
      "lot": 126.415314
    },
    {
      "name": "왕산해수욕장",
      "address": "인천광역시 중구 을왕동",
      "lat": 37.449869,
      "lot": 126.371955
    },
    {
      "name": "을왕리해수욕장",
      "address": "인천광역시 중구 을왕동 717-12",
      "lat": 37.454123,
      "lot": 126.372618
    },
    {
      "name": "하나개해수욕장",
      "address": "인천광역시 중구 무의동 산189",
      "lat": 37.368115,
      "lot": 126.430354
    },
    {
      "name": "송도해수욕장",
      "address": "인천광역시 연수구 옥련동 504",
      "lat": 37.404781,
      "lot": 126.638381
    },
    {
      "name": "동막해수욕장",
      "address": "인천광역시 강화군 화도면 동막리 7",
      "lat": 37.600781,
      "lot": 126.452906
    },
    {
      "name": "민머루해수욕장",
      "address": "인천광역시 강화군 삼산면 매음리 산367",
      "lat": 37.724429,
      "lot": 126.349736
    },
    {
      "name": "계넘어해수욕장",
      "address": "인천광역시 옹진군 자월면 이작1리 산166",
      "lat": 37.226731,
      "lot": 126.230637
    },
    {
      "name": "구리동해수욕장",
      "address": "인천광역시 옹진군 연평면 연평리 906-1",
      "lat": 37.663622,
      "lot": 125.707369
    },
    {
      "name": "굴업해수욕장",
      "address": "인천광역시 옹진군 덕적면 굴업리",
      "lat": 37.224779,
      "lot": 126.122263
    },
    {
      "name": "떼뿌리해수욕장",
      "address": "인천광역시 옹진군 덕적면 소야리",
      "lat": 37.222463,
      "lot": 126.134267
    },
    {
      "name": "문갑해수욕장",
      "address": "인천광역시 옹진군 덕적면 문갑리",
      "lat": 37.221148,
      "lot": 126.142541
    },
    {
      "name": "밧지름해수욕장",
      "address": "인천광역시 옹진군 덕적면 진리",
      "lat": 37.231399,
      "lot": 126.150857
    },
    {
      "name": "벌안해수욕장",
      "address": "인천광역시 옹진군 자월면 이작1리 231-7",
      "lat": 37.236622,
      "lot": 126.228876
    },
    {
      "name": "사곶해수욕장",
      "address": "인천광역시 옹진군 백령면 진촌3리",
      "lat": 37.960729,
      "lot": 124.71198
    },
    {
      "name": "사탄동해수욕장",
      "address": "인천광역시 옹진군 대청면 대청리 산280",
      "lat": 37.824877,
      "lot": 124.699512
    },
    {
      "name": "서포리해수욕장",
      "address": "인천광역시 옹진군 덕적면 서포리",
      "lat": 37.234066,
      "lot": 126.154197
    },
    {
      "name": "소청예동해수욕장",
      "address": "인천광역시 옹진군 대청면 소청리 산147",
      "lat": 37.875432,
      "lot": 124.719163
    },
    {
      "name": "수기해수욕장",
      "address": "인천광역시 옹진군 북도면 시도리 46",
      "lat": 37.508789,
      "lot": 126.378708
    },
    {
      "name": "십리포해수욕장",
      "address": "인천광역시 옹진군 영흥면 내리 729-127",
      "lat": 37.269863,
      "lot": 126.477219
    },
    {
      "name": "옹암해수욕장",
      "address": "인천광역시 옹진군 북도면 장봉리 154-3",
      "lat": 37.547825,
      "lot": 126.329675
    },
    {
      "name": "이일레해수욕장",
      "address": "인천광역시 옹진군 자월면 승봉리 산135-1",
      "lat": 37.193568,
      "lot": 126.272951
    },
    {
      "name": "작은풀안해수욕장",
      "address": "인천광역시 옹진군 자월면 이작1리 241",
      "lat": 37.226412,
      "lot": 126.231472
    },
    {
      "name": "장경리해수욕장",
      "address": "인천광역시 옹진군 영흥면 내리 1675-1",
      "lat": 37.239578,
      "lot": 126.497983
    },
    {
      "name": "장골해수욕장",
      "address": "인천광역시 옹진군 자월면 자월리 1089-1",
      "lat": 37.192838,
      "lot": 126.258017
    },
    {
      "name": "지두리해수욕장",
      "address": "인천광역시 옹진군 대청면 대청리 산269-3",
      "lat": 37.827882,
      "lot": 124.698382
    },
    {
      "name": "진촌해수욕장",
      "address": "인천광역시 옹진군 북도면 장봉리 730",
      "lat": 37.550912,
      "lot": 126.320157
    },
    {
      "name": "큰말해수욕장",
      "address": "인천광역시 옹진군 자월면 자월리 1116-21",
      "lat": 37.194412,
      "lot": 126.262152
    },
    {
      "name": "큰풀안해수욕장",
      "address": "인천광역시 옹진군 자월면 이작1리 산232",
      "lat": 37.228471,
      "lot": 126.226584
    },
    {
      "name": "한들해수욕장",
      "address": "인천광역시 옹진군 북도면 장봉리 200-4",
      "lat": 37.544672,
      "lot": 126.317388
    },
    {
      "name": "일산해수욕장",
      "address": "울산광역시 동구 일산동 공유수면 993",
      "lat": 35.504625,
      "lot": 129.429963
    },
    {
      "name": "진하해수욕장",
      "address": "울산광역시 울주군 서생면 진하리 77-7",
      "lat": 35.378648,
      "lot": 129.332161
    },
    {
      "name": "나사해수욕장",
      "address": "울산광역시 울주군 서생면 나사리",
      "lat": 35.377562,
      "lot": 129.291134
    },
    {
      "name": "국화도해수욕장",
      "address": "경기도 화성시 우정읍 국화리",
      "lat": 37.087899,
      "lot": 126.634489
    },
    {
      "name": "궁평리해수욕장",
      "address": "경기도 화성시 서신면 궁평리",
      "lat": 37.147635,
      "lot": 126.681509
    },
    {
      "name": "입파도해수욕장",
      "address": "경기도 화성시 우정읍 국화리",
      "lat": 37.056662,
      "lot": 126.588043
    },
    {
      "name": "제부리해수욕장",
      "address": "경기도 화성시 서신면 제부리",
      "lat": 37.17128,
      "lot": 126.630599
    },
    {
      "name": "강문해수욕장",
      "address": "강원특별자치도 강릉시 강문동",
      "lat": 37.799371,
      "lot": 128.916669
    },
    {
      "name": "경포해수욕장",
      "address": "강원특별자치도 강릉시 안현동",
      "lat": 37.804932,
      "lot": 128.906369
    },
    {
      "name": "금진해수욕장",
      "address": "강원특별자치도 강릉시 옥계면 금진리",
      "lat": 37.65228,
      "lot": 129.043474
    },
    {
      "name": "남항진해수욕장",
      "address": "강원특별자치도 강릉시 남항진동",
      "lat": 37.767688,
      "lot": 128.947478
    },
    {
      "name": "도직해수욕장",
      "address": "강원특별자치도 강릉시 옥계면 도직리",
      "lat": 37.621647,
      "lot": 129.041203
    },
    {
      "name": "등명해수욕장",
      "address": "강원특별자치도 강릉시 강동면 정동진리",
      "lat": 37.688423,
      "lot": 129.032971
    },
    {
      "name": "사근진해수욕장",
      "address": "강원특별자치도 강릉시 안현동",
      "lat": 37.807132,
      "lot": 128.909773
    },
    {
      "name": "사천진해수욕장",
      "address": "강원특별자치도 강릉시 사천면 사천진리",
      "lat": 37.837345,
      "lot": 128.894019
    },
    {
      "name": "사천해수욕장",
      "address": "강원특별자치도 강릉시 사천면 방동하리",
      "lat": 37.836144,
      "lot": 128.888587
    },
    {
      "name": "송정해수욕장",
      "address": "강원특별자치도 강릉시 송정동",
      "lat": 37.783775,
      "lot": 128.921982
    },
    {
      "name": "순긋해수욕장",
      "address": "강원특별자치도 강릉시 안현동",
      "lat": 37.806981,
      "lot": 128.91104
    },
    {
      "name": "안목해수욕장",
      "address": "강원특별자치도 강릉시 견소동",
      "lat": 37.758456,
      "lot": 128.951601
    },
    {
      "name": "안인해수욕장",
      "address": "강원특별자치도 강릉시 강동면 안인진리",
      "lat": 37.687195,
      "lot": 129.035819
    },
    {
      "name": "연곡해수욕장",
      "address": "강원특별자치도 강릉시 연곡면 동덕리",
      "lat": 37.915135,
      "lot": 128.851284
    },
    {
      "name": "염전해수욕장",
      "address": "강원특별자치도 강릉시 강동면 안인리",
      "lat": 37.673654,
      "lot": 129.038014
    },
    {
      "name": "영진해수욕장",
      "address": "강원특별자치도 강릉시 연곡면 영진리",
      "lat": 37.902714,
      "lot": 128.837853
    },
    {
      "name": "옥계해수욕장",
      "address": "강원특별자치도 강릉시 옥계면 금진리",
      "lat": 37.642187,
      "lot": 129.039167
    },
    {
      "name": "정동진해수욕장",
      "address": "강원특별자치도 강릉시 강동면 정동진리",
      "lat": 37.689831,
      "lot": 129.033156
    },
    {
      "name": "주문진해수욕장",
      "address": "강원특별자치도 강릉시 주문진읍 주문리, 향호리",
      "lat": 37.894576,
      "lot": 128.828799
    },
    {
      "name": "하평해수욕장",
      "address": "강원특별자치도 강릉시 사천면 하평리",
      "lat": 37.820141,
      "lot": 128.88357
    },
    {
      "name": "감추사해수욕장",
      "address": "강원특별자치도 동해시 용정동 12-1",
      "lat": 37.533403,
      "lot": 129.112204
    },
    {
      "name": "고불개해수욕장",
      "address": "강원특별자치도 동해시 천곡동 285",
      "lat": 37.518644,
      "lot": 129.120522
    },
    {
      "name": "노봉해수욕장",
      "address": "강원특별자치도 동해시 망상동 168-1",
      "lat": 37.592104,
      "lot": 129.051644
    },
    {
      "name": "대진해수욕장",
      "address": "강원특별자치도 동해시 망상동 5-1",
      "lat": 37.600036,
      "lot": 129.056898
    },
    {
      "name": "망상해수욕장",
      "address": "강원특별자치도 동해시 망상동 393-16",
      "lat": 37.597222,
      "lot": 129.055461
    },
    {
      "name": "어달해수욕장",
      "address": "강원특별자치도 동해시 어달동 192",
      "lat": 37.518478,
      "lot": 129.130168
    },
    {
      "name": "추암해수욕장",
      "address": "강원특별자치도 동해시 추암동 1-2",
      "lat": 37.486978,
      "lot": 129.132229
    },
    {
      "name": "한섬해수욕장",
      "address": "강원특별자치도 동해시 천곡동 31-1",
      "lat": 37.515847,
      "lot": 129.114723
    },
    {
      "name": "등대해수욕장",
      "address": "강원특별자치도 속초시 영랑동",
      "lat": 38.213539,
      "lot": 128.592705
    },
    {
      "name": "속초해수욕장",
      "address": "강원특별자치도 속초시 조양동, 대포동",
      "lat": 38.198636,
      "lot": 128.591584
    },
    {
      "name": "외옹치해수욕장",
      "address": "강원특별자치도 속초시 대포동",
      "lat": 38.184254,
      "lot": 128.59545
    },
    {
      "name": "고포해수욕장",
      "address": "강원특별자치도 삼척시 원덕읍 월천리 산96-2",
      "lat": 37.250118,
      "lot": 129.318148
    },
    {
      "name": "궁촌해수욕장",
      "address": "강원특별자치도 삼척시 근덕면 궁촌리 156-26",
      "lat": 37.379611,
      "lot": 129.211939
    },
    {
      "name": "덕산해수욕장",
      "address": "강원특별자치도 삼척시 근덕면 덕산리 83-6",
      "lat": 37.370889,
      "lot": 129.226007
    },
    {
      "name": "맹방해수욕장",
      "address": "강원특별자치도 삼척시 근덕면 하맹방리 221-20",
      "lat": 37.337706,
      "lot": 129.252025
    },
    {
      "name": "문암해수욕장",
      "address": "강원특별자치도 삼척시 근덕면 초곡리 257-1",
      "lat": 37.334814,
      "lot": 129.238092
    },
    {
      "name": "부남해수욕장",
      "address": "강원특별자치도 삼척시 근덕면 부남리 산102-1",
      "lat": 37.305167,
      "lot": 129.293314
    },
    {
      "name": "삼척해수욕장",
      "address": "강원특별자치도 삼척시 갈천동 14-27",
      "lat": 37.439375,
      "lot": 129.165981
    },
    {
      "name": "상맹방해수욕장(승공해수욕장)",
      "address": "강원특별자치도 삼척시 근덕면 상맹방리 466-12",
      "lat": 37.350658,
      "lot": 129.250936
    },
    {
      "name": "오분해수욕장",
      "address": "강원특별자치도 삼척시 오분동 24",
      "lat": 37.444544,
      "lot": 129.183045
    },
    {
      "name": "용화해수욕장",
      "address": "강원특별자치도 삼척시 근덕면 용화리 14-5",
      "lat": 37.318536,
      "lot": 129.267269
    },
    {
      "name": "원평해수욕장",
      "address": "강원특별자치도 삼척시 근덕면 매원리 85-1",
      "lat": 37.341878,
      "lot": 129.256689
    },
    {
      "name": "임원해수욕장",
      "address": "강원특별자치도 삼척시 원덕읍 임원리 산399-29",
      "lat": 37.281254,
      "lot": 129.321047
    },
    {
      "name": "작은후진해수욕장",
      "address": "강원특별자치도 삼척시 교동 379-1",
      "lat": 37.436789,
      "lot": 129.171278
    },
    {
      "name": "장호해수욕장",
      "address": "강원특별자치도 삼척시 근덕면 장호리 291",
      "lat": 37.335758,
      "lot": 129.23705
    },
    {
      "name": "증산해수욕장",
      "address": "강원특별자치도 삼척시 증산동 30-21",
      "lat": 37.447614,
      "lot": 129.171889
    },
    {
      "name": "하맹방해수욕장(연봉해수욕장)",
      "address": "강원특별자치도 삼척시 근덕면 하맹방리 221-1",
      "lat": 37.33362,
      "lot": 129.252365
    },
    {
      "name": "한재밑해수욕장",
      "address": "강원특별자치도 삼척시 근덕면 상맹방리 466-3",
      "lat": 37.352852,
      "lot": 129.250769
    },
    {
      "name": "가진해수욕장",
      "address": "강원특별자치도 고성군 죽왕면 가진리 21-1",
      "lat": 38.36056,
      "lot": 128.484606
    },
    {
      "name": "거진11리해수욕장",
      "address": "강원특별자치도 고성군 거진읍 거진리 22-28",
      "lat": 38.394665,
      "lot": 128.517045
    },
    {
      "name": "거진1리해수욕장",
      "address": "강원특별자치도 고성군 거진읍 거진리 33-2",
      "lat": 38.394582,
      "lot": 128.5202
    },
    {
      "name": "공현진1리해수욕장",
      "address": "강원특별자치도 고성군 죽왕면 공현진리 431-15",
      "lat": 38.339473,
      "lot": 128.447715
    },
    {
      "name": "공현진2리해수욕장",
      "address": "강원특별자치도 고성군 죽왕면 공현진리 143-3",
      "lat": 38.336572,
      "lot": 128.44647
    },
    {
      "name": "교암해수욕장",
      "address": "강원특별자치도 고성군 토성면 교암리 1-30",
      "lat": 38.387407,
      "lot": 128.541925
    },
    {
      "name": "대진1리해수욕장",
      "address": "강원특별자치도 고성군 현내면 대진리 26-65",
      "lat": 38.371702,
      "lot": 128.48278
    },
    {
      "name": "대진5리해수욕장",
      "address": "강원특별자치도 고성군 현내면 대진리 191-1",
      "lat": 38.367799,
      "lot": 128.48525
    },
    {
      "name": "마차진해수욕장",
      "address": "강원특별자치도 고성군 현내면 마차진리 233-2",
      "lat": 38.3752,
      "lot": 128.48714
    },
    {
      "name": "명파리해수욕장",
      "address": "강원특별자치도 고성군 현내면 명파리 230-29",
      "lat": 38.364798,
      "lot": 128.497745
    },
    {
      "name": "문암진2리해수욕장",
      "address": "강원특별자치도 고성군 죽왕면 문암진리 3",
      "lat": 38.339468,
      "lot": 128.446608
    },
    {
      "name": "반암해수욕장",
      "address": "강원특별자치도 고성군 거진읍 반암리 133-2",
      "lat": 38.396666,
      "lot": 128.519244
    },
    {
      "name": "백도해수욕장",
      "address": "강원특별자치도 고성군 죽왕면 문암진리 19-3",
      "lat": 38.338562,
      "lot": 128.44631
    },
    {
      "name": "봉수대해수욕장",
      "address": "강원특별자치도 고성군 죽왕면 오호리 68-5",
      "lat": 38.348623,
      "lot": 128.446678
    },
    {
      "name": "봉포해수욕장",
      "address": "강원특별자치도 고성군 토성면 봉포리 290-1",
      "lat": 38.365728,
      "lot": 128.546072
    },
    {
      "name": "삼포해수욕장",
      "address": "강원특별자치도 고성군 죽왕면 삼포리 243-26",
      "lat": 38.338885,
      "lot": 128.435769
    },
    {
      "name": "삼포2리해수욕장",
      "address": "강원특별자치도 고성군 죽왕면 삼포리 11",
      "lat": 38.336618,
      "lot": 128.434437
    },
    {
      "name": "송지호오토캠핑장해수욕장",
      "address": "강원특별자치도 고성군 죽왕면 오봉리 9-7",
      "lat": 38.345752,
      "lot": 128.431631
    },
    {
      "name": "송지호해수욕장",
      "address": "강원특별자치도 고성군 죽왕면 오호리 1-3",
      "lat": 38.341651,
      "lot": 128.426051
    },
    {
      "name": "아야진해수욕장",
      "address": "강원특별자치도 고성군 토성면 아야진리 230-5",
      "lat": 38.387206,
      "lot": 128.541845
    },
    {
      "name": "자작도해수욕장",
      "address": "강원특별자치도 고성군 죽왕면 문암진리 460-9",
      "lat": 38.336678,
      "lot": 128.44676
    },
    {
      "name": "천진해수욕장",
      "address": "강원특별자치도 고성군 토성면 천진리 111-5",
      "lat": 38.371518,
      "lot": 128.547323
    },
    {
      "name": "청간해수욕장",
      "address": "강원특별자치도 고성군 토성면 청간리 54-14",
      "lat": 38.372987,
      "lot": 128.548661
    },
    {
      "name": "초도해수욕장",
      "address": "강원특별자치도 고성군 현내면 초도리 218",
      "lat": 38.360112,
      "lot": 128.469849
    },
    {
      "name": "켄싱턴리조트해수욕장",
      "address": "강원특별자치도 고성군 토성면 봉포리 40-9",
      "lat": 38.366218,
      "lot": 128.545065
    },
    {
      "name": "화진포해수욕장",
      "address": "강원특별자치도 고성군 현내면 초도리 94-7",
      "lat": 38.361292,
      "lot": 128.467518
    },
    {
      "name": "38해수욕장",
      "address": "강원특별자치도 양양군 현북면 기사문리, 잔교리",
      "lat": 38.065716,
      "lot": 128.614493
    },
    {
      "name": "갯해수욕장(갯마을해수욕장)",
      "address": "강원특별자치도 양양군 현남면 남애3리",
      "lat": 38.087206,
      "lot": 128.615794
    },
    {
      "name": "광진해수욕장",
      "address": "강원특별자치도 양양군 현남면 광진리",
      "lat": 38.08459,
      "lot": 128.616389
    },
    {
      "name": "낙산해수욕장",
      "address": "강원특별자치도 양양군 강현면 진전리",
      "lat": 38.048535,
      "lot": 128.608979
    },
    {
      "name": "남애1리해수욕장",
      "address": "강원특별자치도 양양군 현남면 남애1리",
      "lat": 38.092381,
      "lot": 128.625907
    },
    {
      "name": "남애3리해수욕장",
      "address": "강원특별자치도 양양군 현남면 남애3리",
      "lat": 38.089317,
      "lot": 128.624852
    },
    {
      "name": "동산해수욕장",
      "address": "강원특별자치도 양양군 현남면 동산리",
      "lat": 38.090292,
      "lot": 128.619278
    },
    {
      "name": "동산포해수욕장",
      "address": "강원특별자치도 양양군 현남면 동산리",
      "lat": 38.091188,
      "lot": 128.621011
    },
    {
      "name": "동호해수욕장",
      "address": "강원특별자치도 양양군 손양면 동호리 1-21",
      "lat": 38.086113,
      "lot": 128.61349
    },
    {
      "name": "물치해수욕장",
      "address": "강원특별자치도 양양군 강현면 물치리",
      "lat": 38.046203,
      "lot": 128.606372
    },
    {
      "name": "설악해수욕장",
      "address": "강원특별자치도 양양군 강현면 진전리,용호리",
      "lat": 38.046539,
      "lot": 128.609168
    },
    {
      "name": "오산해수욕장",
      "address": "강원특별자치도 양양군 손양면 송전리",
      "lat": 38.078624,
      "lot": 128.62057
    },
    {
      "name": "원포해수욕장",
      "address": "강원특별자치도 양양군 현남면 원포리",
      "lat": 38.086712,
      "lot": 128.627062
    },
    {
      "name": "인구해수욕장",
      "address": "강원특별자치도 양양군 현남면 인구리",
      "lat": 38.084128,
      "lot": 128.620142
    },
    {
      "name": "잔교해수욕장",
      "address": "강원특별자치도 양양군 현북면 잔교리",
      "lat": 38.066245,
      "lot": 128.611622
    },
    {
      "name": "정암해수욕장",
      "address": "강원특별자치도 양양군 강현면 정암리",
      "lat": 38.05023,
      "lot": 128.60553
    },
    {
      "name": "죽도해수욕장",
      "address": "강원특별자치도 양양군 현남면 두창시변리",
      "lat": 38.086897,
      "lot": 128.625433
    },
    {
      "name": "지경해수욕장",
      "address": "강원특별자치도 양양군 현남면 지경리",
      "lat": 38.087984,
      "lot": 128.628364
    },
    {
      "name": "하조대해수욕장",
      "address": "강원특별자치도 양양군 현북면 하광정리 80-2",
      "lat": 38.070639,
      "lot": 128.615037
    },
    {
      "name": "거멀너머해수욕장",
      "address": "충청남도 보령시 오천면 삽시도리",
      "lat": 36.265678,
      "lot": 126.586791
    },
    {
      "name": "당너머해수욕장",
      "address": "충청남도 보령시 오천면 장고도리",
      "lat": 36.268749,
      "lot": 126.581944
    },
    {
      "name": "당산해수욕장",
      "address": "충청남도 보령시 오천면 고대도리",
      "lat": 36.261549,
      "lot": 126.578594
    },
    {
      "name": "대천해수욕장",
      "address": "충청남도 보령시 신흑동",
      "lat": 36.32345,
      "lot": 126.58184
    },
    {
      "name": "독산해수욕장",
      "address": "충청남도 보령시 웅천읍 독산리",
      "lat": 36.26986,
      "lot": 126.646355
    },
    {
      "name": "명덕해수욕장",
      "address": "충청남도 보령시 오천면 효자도리",
      "lat": 36.264212,
      "lot": 126.590345
    },
    {
      "name": "명장섬해수욕장",
      "address": "충청남도 보령시 오천면 장고도리",
      "lat": 36.269485,
      "lot": 126.581044
    },
    {
      "name": "무창포해수욕장",
      "address": "충청남도 보령시 웅천읍 관당리",
      "lat": 36.297856,
      "lot": 126.635741
    },
    {
      "name": "밤섬해수욕장",
      "address": "충청남도 보령시 오천면 삽시도리",
      "lat": 36.264079,
      "lot": 126.586668
    },
    {
      "name": "사창해수욕장",
      "address": "충청남도 보령시 오천면 원산도리",
      "lat": 36.261786,
      "lot": 126.58116
    },
    {
      "name": "오봉산해수욕장",
      "address": "충청남도 보령시 오천면 원산도리",
      "lat": 36.261857,
      "lot": 126.581305
    },
    {
      "name": "용두해수욕장",
      "address": "충청남도 보령시 남포면 월전리 11번지",
      "lat": 36.271788,
      "lot": 126.615052
    },
    {
      "name": "원산도해수욕장",
      "address": "충청남도 보령시 오천면 원산도리",
      "lat": 36.261794,
      "lot": 126.581549
    },
    {
      "name": "장안해수욕장",
      "address": "충청남도 보령시 웅천읍 소황리",
      "lat": 36.297365,
      "lot": 126.641266
    },
    {
      "name": "저두해수욕장",
      "address": "충청남도 보령시 오천면 원산도리",
      "lat": 36.2619,
      "lot": 126.581482
    },
    {
      "name": "진너머해수욕장",
      "address": "충청남도 보령시 오천면 삽시도리",
      "lat": 36.26415,
      "lot": 126.586788
    },
    {
      "name": "춘장대해수욕장",
      "address": "충청남도 서천군 서면 도둔리 지내",
      "lat": 36.151957,
      "lot": 126.725631
    },
    {
      "name": "호도해수욕장",
      "address": "충청남도 보령시 오천면 호도리",
      "lat": 36.271214,
      "lot": 126.581726
    },
    {
      "name": "갈음이해수욕장",
      "address": "충청남도 태안군 근흥면 정죽리 산147-46",
      "lat": 36.297874,
      "lot": 126.267547
    },
    {
      "name": "곰섬해수욕장",
      "address": "충청남도 태안군 남면 신온리 903-13",
      "lat": 36.293846,
      "lot": 126.286392
    },
    {
      "name": "구례포해수욕장",
      "address": "충청남도 태안군 원북면 황촌리 810-6",
      "lat": 36.325721,
      "lot": 126.240836
    },
    {
      "name": "구름포해수욕장",
      "address": "충청남도 태안군 소원면 의항리 157",
      "lat": 36.248273,
      "lot": 126.253507
    },
    {
      "name": "기지포해수욕장",
      "address": "충청남도 태안군 안면읍 창기리 560-1",
      "lat": 36.492146,
      "lot": 126.357018
    },
    {
      "name": "꽃지해수욕장",
      "address": "충청남도 태안군 안면읍 승언리 산29-100",
      "lat": 36.482613,
      "lot": 126.367085
    },
    {
      "name": "꾸지나무골해수욕장",
      "address": "충청남도 태안군 이원면 내리 498-1",
      "lat": 36.392234,
      "lot": 126.309068
    },
    {
      "name": "달산포해수욕장",
      "address": "충청남도 태안군 남면 달산리 995-16",
      "lat": 36.313592,
      "lot": 126.302122
    },
    {
      "name": "두여해수욕장",
      "address": "충청남도 태안군 안면읍 승언리 산12-1",
      "lat": 36.473675,
      "lot": 126.367835
    },
    {
      "name": "마검포해수욕장",
      "address": "충청남도 태안군 남면 신온리 2-1",
      "lat": 36.291556,
      "lot": 126.280694
    },
    {
      "name": "만리포해수욕장",
      "address": "충청남도 태안군 소원면 모항리 1325-52",
      "lat": 36.223731,
      "lot": 126.283822
    },
    {
      "name": "몽산포해수욕장",
      "address": "충청남도 태안군 남면 신장리 353-58",
      "lat": 36.309526,
      "lot": 126.30383
    },
    {
      "name": "바람아래해수욕장",
      "address": "충청남도 태안군 고남면 장곡리 422-44",
      "lat": 36.297038,
      "lot": 126.257092
    },
    {
      "name": "밧개해수욕장",
      "address": "충청남도 태안군 안면읍 승언리 1831-3",
      "lat": 36.483498,
      "lot": 126.371759
    },
    {
      "name": "방주골해수욕장",
      "address": "충청남도 태안군 소원면 의항리 산83",
      "lat": 36.237444,
      "lot": 126.271567
    },
    {
      "name": "방포해수욕장",
      "address": "충청남도 태안군 안면읍 승언리 산18-459",
      "lat": 36.482134,
      "lot": 126.368041
    },
    {
      "name": "백사장해수욕장",
      "address": "충청남도 태안군 안면읍 창기리 1269-135",
      "lat": 36.482717,
      "lot": 126.362214
    },
    {
      "name": "사목해수욕장",
      "address": "충청남도 태안군 이원면 내리 739-3",
      "lat": 36.386089,
      "lot": 126.308383
    },
    {
      "name": "삼봉해수욕장",
      "address": "충청남도 태안군 안면읍 창기리 1304-3",
      "lat": 36.487724,
      "lot": 126.357271
    },
    {
      "name": "샛별해수욕장",
      "address": "충청남도 태안군 안면읍 신야리 산19-1",
      "lat": 36.483072,
      "lot": 126.359087
    },
    {
      "name": "신두리해수욕장",
      "address": "충청남도 태안군 원북면 신두리 1414-26",
      "lat": 36.345621,
      "lot": 126.239151
    },
    {
      "name": "안면해수욕장",
      "address": "충청남도 태안군 안면읍 정당리 산28-55",
      "lat": 36.470982,
      "lot": 126.369873
    },
    {
      "name": "어은돌해수욕장",
      "address": "충청남도 태안군 소원면 모항리 1097-18",
      "lat": 36.231124,
      "lot": 126.278132
    },
    {
      "name": "연포해수욕장",
      "address": "충청남도 태안군 근흥면 도황리 1526-170",
      "lat": 36.292545,
      "lot": 126.269031
    },
    {
      "name": "의항해수욕장",
      "address": "충청남도 태안군 소원면 의항리 산81-1",
      "lat": 36.246698,
      "lot": 126.253051
    },
    {
      "name": "장돌해수욕장",
      "address": "충청남도 태안군 고남면 장곡리 493-2",
      "lat": 36.295619,
      "lot": 126.260706
    },
    {
      "name": "장삼해수욕장",
      "address": "충청남도 태안군 고남면 장곡리 603-1",
      "lat": 36.297482,
      "lot": 126.259688
    },
    {
      "name": "천리포해수욕장",
      "address": "충청남도 태안군 소원면 의항리 978-2",
      "lat": 36.241533,
      "lot": 126.249417
    },
    {
      "name": "청포대해수욕장",
      "address": "충청남도 태안군 남면 원청리 512-3",
      "lat": 36.298772,
      "lot": 126.313181
    },
    {
      "name": "통개해수욕장",
      "address": "충청남도 태안군 소원면 파도리 130-22",
      "lat": 36.227091,
      "lot": 126.269989
    },
    {
      "name": "파도리해수욕장",
      "address": "충청남도 태안군 소원면 파도리 595-1",
      "lat": 36.222614,
      "lot": 126.274912
    },
    {
      "name": "학암포해수욕장",
      "address": "충청남도 태안군 원북면 방갈리 515-121",
      "lat": 36.350817,
      "lot": 126.22174
    },
    {
      "name": "난지도해수욕장",
      "address": "충청남도 당진시 석문면 난지도리 558",
      "lat": 36.927843,
      "lot": 126.535798
    },
    {
      "name": "선유도해수욕장",
      "address": "전라북도 군산시 옥도면 선유도리",
      "lat": 35.713097,
      "lot": 126.580185
    },
    {
      "name": "구시포해수욕장",
      "address": "전라북도 고창군 상하면 자룡리 일대",
      "lat": 35.436646,
      "lot": 126.674683
    },
    {
      "name": "동호해수욕장",
      "address": "전라북도 고창군 해리면 동호리",
      "lat": 35.410279,
      "lot": 126.680596
    },
    {
      "name": "격포해수욕장",
      "address": "전라북도 부안군 변산면 격포리 283",
      "lat": 35.722786,
      "lot": 126.617064
    },
    {
      "name": "고사포해수욕장",
      "address": "전라북도 부안군 변산면 운산리 441",
      "lat": 35.742438,
      "lot": 126.600838
    },
    {
      "name": "모항갯벌해수욕장",
      "address": "전라북도 부안군 변산면 도청리",
      "lat": 35.747379,
      "lot": 126.601151
    },
    {
      "name": "변산해수욕장",
      "address": "전라북도 부안군 변산면 대항리",
      "lat": 35.746146,
      "lot": 126.615486
    },
    {
      "name": "상록해수욕장",
      "address": "전라북도 부안군 변산면 도청리",
      "lat": 35.744068,
      "lot": 126.606586
    },
    {
      "name": "위도고슴도치해수욕장",
      "address": "전라북도 부안군 위도면",
      "lat": 35.793969,
      "lot": 126.560993
    },
    {
      "name": "외달도해수욕장",
      "address": "전라남도 목포시 달동 1268",
      "lat": 34.814079,
      "lot": 126.441773
    },
    {
      "name": "거문도해수욕장(유림해수욕장)",
      "address": "전라남도 여수시 삼산면 서도리 서도(마을) 지선",
      "lat": 34.689074,
      "lot": 127.706271
    },
    {
      "name": "낭도해수욕장",
      "address": "전라남도 여수시 남면 낭도리 여산(마을) 지선",
      "lat": 34.694894,
      "lot": 127.734314
    },
    {
      "name": "대풍해수욕장",
      "address": "전라남도 여수시 삼산면 초도리 대동(마을) 지선",
      "lat": 34.64629,
      "lot": 127.734174
    },
    {
      "name": "만성리검은모래해수욕장",
      "address": "전라남도 여수시 만흥동 평촌(마을) 지선",
      "lat": 34.74658,
      "lot": 127.735726
    },
    {
      "name": "모사금해수욕장",
      "address": "전라남도 여수시 오천동 오천(마을) 지선",
      "lat": 34.671055,
      "lot": 127.705439
    },
    {
      "name": "무술목해수욕장",
      "address": "전라남도 여수시 삼산면 서도리 서도(마을) 지선",
      "lat": 34.680301,
      "lot": 127.719103
    },
    {
      "name": "방죽포해수욕장",
      "address": "전라남도 여수시 돌산읍 죽포리 방죽(마을) 지선",
      "lat": 34.710014,
      "lot": 127.748844
    },
    {
      "name": "사도해수욕장",
      "address": "전라남도 여수시 화정면 낭도리 사도(마을) 지선",
      "lat": 34.687145,
      "lot": 127.728114
    },
    {
      "name": "서도해수욕장",
      "address": "전라남도 여수시 삼산면 서도리 서도(마을) 지선",
      "lat": 34.67621,
      "lot": 127.717214
    },
    {
      "name": "손죽해수욕장",
      "address": "전라남도 여수시 삼산면 손죽리 손죽(마을) 지선",
      "lat": 34.678822,
      "lot": 127.722184
    },
    {
      "name": "신덕해수욕장",
      "address": "전라남도 여수시 삼일동 신덕리 신덕(마을) 지선",
      "lat": 34.727887,
      "lot": 127.722697
    },
    {
      "name": "안도해수욕장",
      "address": "전라남도 여수시 남면 안도리 안도(마을) 지선",
      "lat": 34.670292,
      "lot": 127.724989
    },
    {
      "name": "장등해수욕장",
      "address": "전라남도 여수시 화양면 장수리 장등(마을) 지선",
      "lat": 34.680029,
      "lot": 127.684981
    },
    {
      "name": "정강해수욕장",
      "address": "전라남도 여수시 삼산면 진막리 정강(마을) 지선",
      "lat": 34.663217,
      "lot": 127.713315
    },
    {
      "name": "금장해수욕장",
      "address": "전라남도 고흥군 금산면 어전리 산14-1",
      "lat": 34.636168,
      "lot": 127.336824
    },
    {
      "name": "나로우주해수욕장",
      "address": "전라남도 고흥군 봉래면 신금리 723",
      "lat": 34.603158,
      "lot": 127.442028
    },
    {
      "name": "남열해돋이해수욕장",
      "address": "전라남도 고흥군 영남면 남열리 175-2",
      "lat": 34.622284,
      "lot": 127.463486
    },
    {
      "name": "대전해수욕장",
      "address": "전라남도 고흥군 두원면 대전리 37-22",
      "lat": 34.550221,
      "lot": 127.432549
    },
    {
      "name": "덕흥해수욕장",
      "address": "전라남도 고흥군 동일면 덕흥리 산207-8",
      "lat": 34.591126,
      "lot": 127.373775
    },
    {
      "name": "발포해수욕장",
      "address": "전라남도 고흥군 도화면 발포리 13",
      "lat": 34.638835,
      "lot": 127.342939
    },
    {
      "name": "소록도해수욕장",
      "address": "전라남도 고흥군 도양읍 소록리 75",
      "lat": 34.607321,
      "lot": 127.357471
    },
    {
      "name": "연소해수욕장",
      "address": "전라남도 고흥군 금산면 신전리 산85-2",
      "lat": 34.629406,
      "lot": 127.319236
    },
    {
      "name": "염포해수욕장",
      "address": "전라남도 고흥군 봉래면 외초리 313-1",
      "lat": 34.617039,
      "lot": 127.434376
    },
    {
      "name": "용동해수욕장",
      "address": "전라남도 고흥군 도덕면 용동리 590",
      "lat": 34.594084,
      "lot": 127.395923
    },
    {
      "name": "익금해수욕장",
      "address": "전라남도 고흥군 금산면 어전리 424-15",
      "lat": 34.629556,
      "lot": 127.334517
    },
    {
      "name": "풍류해수욕장",
      "address": "전라남도 고흥군 두원면 풍류리 683",
      "lat": 34.593209,
      "lot": 127.402121
    },
    {
      "name": "율포해수욕장",
      "address": "전라남도 보성군 회천면 율포리",
      "lat": 34.68045,
      "lot": 127.02426
    },
    {
      "name": "수문해수욕장",
      "address": "전라남도 장흥군 안양면 수문리 121-12",
      "lat": 34.58606,
      "lot": 126.896279
    },
    {
      "name": "사구미해수욕장",
      "address": "전라남도 해남군 송지면 사구리",
      "lat": 34.620561,
      "lot": 126.644528
    },
    {
      "name": "송평해수욕장",
      "address": "전라남도 해남군 화산면 송평리",
      "lat": 34.611378,
      "lot": 126.701124
    },
    {
      "name": "송호땅끝해수욕장",
      "address": "전라남도 해남군 송지면 송호리",
      "lat": 34.630334,
      "lot": 126.609529
    },
    {
      "name": "조금나루해수욕장",
      "address": "전라남도 무안군 망운면 송현리",
      "lat": 34.975805,
      "lot": 126.658497
    },
    {
      "name": "톱머리해수욕장",
      "address": "전라남도 무안군 망운면 피서리",
      "lat": 34.977219,
      "lot": 126.658164
    },
    {
      "name": "홀통해수욕장",
      "address": "전라남도 무안군 현경면 오류리",
      "lat": 34.874978,
      "lot": 126.75758
    },
    {
      "name": "돌머리해수욕장",
      "address": "전라남도 함평군 함평읍 석성리 523",
      "lat": 35.093946,
      "lot": 126.46185
    },
    {
      "name": "안악해수욕장",
      "address": "전라남도 함평군 손불면 월천리 1140",
      "lat": 35.098762,
      "lot": 126.566871
    },
    {
      "name": "가마미해수욕장",
      "address": "전라남도 영광군 홍농읍 계마리 799-1번지외 26",
      "lat": 35.258342,
      "lot": 126.447072
    },
    {
      "name": "송이도해수욕장",
      "address": "전라남도 영광군 낙월면 송이리 산414-1외 7",
      "lat": 35.212722,
      "lot": 126.510845
    },
    {
      "name": "가사동백숲해수욕장",
      "address": "전라남도 완도군 약산면 가사리",
      "lat": 34.375758,
      "lot": 126.809979
    },
    {
      "name": "금곡해수욕장",
      "address": "전라남도 완도군 생일면 금곡리",
      "lat": 34.412676,
      "lot": 126.756736
    },
    {
      "name": "금일해당화해수욕장",
      "address": "전라남도 완도군 금일읍 월송리",
      "lat": 34.442178,
      "lot": 126.73783
    },
    {
      "name": "동고해수욕장",
      "address": "전라남도 완도군 신지면 동고리",
      "lat": 34.353208,
      "lot": 126.673338
    },
    {
      "name": "신지명사십리해수욕장",
      "address": "전라남도 완도군 신지면 신리",
      "lat": 34.369482,
      "lot": 126.726519
    },
    {
      "name": "신흥해수욕장",
      "address": "전라남도 완도군 청산면 신흥리",
      "lat": 34.457228,
      "lot": 126.711235
    },
    {
      "name": "예송해수욕장",
      "address": "전라남도 완도군 보길면 예송리",
      "lat": 34.393951,
      "lot": 126.699837
    },
    {
      "name": "중리해수욕장",
      "address": "전라남도 완도군 보길면 중리",
      "lat": 34.379563,
      "lot": 126.711143
    },
    {
      "name": "청송해수욕장",
      "address": "전라남도 완도군 청산면 지리",
      "lat": 34.394191,
      "lot": 126.732815
    },
    {
      "name": "통리해수욕장",
      "address": "전라남도 완도군 보길면 중통리",
      "lat": 34.408934,
      "lot": 126.684732
    },
    {
      "name": "가계해수욕장",
      "address": "전라남도 진도군 고군면 금계리 153-3",
      "lat": 34.430074,
      "lot": 126.254771
    },
    {
      "name": "관매해수욕장",
      "address": "전라남도 진도군 조도면 관매도리",
      "lat": 34.372039,
      "lot": 126.257039
    },
    {
      "name": "금갑해수욕장",
      "address": "전라남도 진도군 의신면 금갑리 430-5",
      "lat": 34.415745,
      "lot": 126.348553
    },
    {
      "name": "신전해수욕장",
      "address": "전라남도 진도군 조도면 신전리",
      "lat": 34.386928,
      "lot": 126.235467
    },
    {
      "name": "대광해수욕장",
      "address": "전라남도 신안군 임자면 대광리",
      "lat": 34.727945,
      "lot": 125.93547
    },
    {
      "name": "돈목해수욕장",
      "address": "전라남도 신안군 도초면 우이도리",
      "lat": 34.676902,
      "lot": 125.936929
    },
    {
      "name": "백길해수욕장",
      "address": "전라남도 신안군 자은면 백길리",
      "lat": 34.742596,
      "lot": 125.826919
    },
    {
      "name": "분계해수욕장",
      "address": "전라남도 신안군 자은면 분계리",
      "lat": 34.727411,
      "lot": 125.819969
    },
    {
      "name": "시목해수욕장",
      "address": "전라남도 신안군 도초면 오류리",
      "lat": 34.707105,
      "lot": 125.947815
    },
    {
      "name": "신도해수욕장",
      "address": "전라남도 신안군 하의면 능산리",
      "lat": 34.638455,
      "lot": 125.75831
    },
    {
      "name": "우전해수욕장",
      "address": "전라남도 신안군 중도면 우전리",
      "lat": 34.750145,
      "lot": 125.832571
    },
    {
      "name": "원평해수욕장",
      "address": "전라남도 신안군 비금면 신원리",
      "lat": 34.656177,
      "lot": 125.86653
    },
    {
      "name": "진리해수욕장",
      "address": "전라남도 신안군 흑산면 진리",
      "lat": 34.570877,
      "lot": 125.742453
    },
    {
      "name": "추포해수욕장",
      "address": "전라남도 신안군 암태면 추포리",
      "lat": 34.551297,
      "lot": 125.697317
    },
    {
      "name": "하트해수욕장",
      "address": "전라남도 신안군 비금면 내월리",
      "lat": 34.64083,
      "lot": 125.911667
    },
    {
      "name": "홍도해수욕장",
      "address": "전라남도 신안군 흑산면 홍도리",
      "lat": 34.493048,
      "lot": 125.649783
    },
    {
      "name": "황성금리해수욕장",
      "address": "전라남도 신안군 신의면 하태서리",
      "lat": 34.76043,
      "lot": 125.74932
    },
    {
      "name": "구룡포해수욕장",
      "address": "경상북도 포항시 남구 구룡포읍 구룡포7리 9-16",
      "lat": 36.045102,
      "lot": 129.413723
    },
    {
      "name": "도구해수욕장",
      "address": "경상북도 포항시 남구 동해면 도구리 729-18",
      "lat": 36.066129,
      "lot": 129.410176
    },
    {
      "name": "영일대해수욕장",
      "address": "경상북도 포항시 북구 항구동 339 ~ 두후동 1002호",
      "lat": 36.058649,
      "lot": 129.369185
    },
    {
      "name": "월포해수욕장",
      "address": "경상북도 포항시 북구 청하면 월포리 92-23",
      "lat": 36.133727,
      "lot": 129.355642
    },
    {
      "name": "칠포해수욕장",
      "address": "경상북도 포항시 북구 홍해읍 칠포리 112",
      "lat": 36.156234,
      "lot": 129.382709
    },
    {
      "name": "포항송도해수욕장",
      "address": "경상북도 포항시 남구 송도동",
      "lat": 36.042264,
      "lot": 129.363529
    },
    {
      "name": "화진해수욕장",
      "address": "경상북도 포항시 북구 송라면 지경리 409",
      "lat": 36.102581,
      "lot": 129.416134
    },
    {
      "name": "관성해수욕장",
      "address": "경상북도 경주시 양남면 수렴리",
      "lat": 35.757278,
      "lot": 129.277642
    },
    {
      "name": "나정해수욕장",
      "address": "경상북도 경주시 감포읍 나정리",
      "lat": 35.771563,
      "lot": 129.389275
    },
    {
      "name": "봉길해수욕장",
      "address": "경상북도 경주시 양북면 봉길리",
      "lat": 35.787751,
      "lot": 129.342348
    },
    {
      "name": "오류해수욕장",
      "address": "경상북도 경주시 감포읍 오류리",
      "lat": 35.769269,
      "lot": 129.376289
    },
    {
      "name": "전촌해수욕장",
      "address": "경상북도 경주시 감포읍 전촌리",
      "lat": 35.75212,
      "lot": 129.371487
    },
    {
      "name": "하서해수욕장",
      "address": "경상북도 경주시 양남면 하서리",
      "lat": 35.770828,
      "lot": 129.357923
    },
    {
      "name": "경정해수욕장",
      "address": "경상북도 영덕군 축산면 경정리",
      "lat": 36.369738,
      "lot": 129.379951
    },
    {
      "name": "고래불해수욕장",
      "address": "경상북도 영덕군 병곡면 병곡리~덕천리",
      "lat": 36.38995,
      "lot": 129.435373
    },
    {
      "name": "남호해수욕장",
      "address": "경상북도 영덕군 남정면 남호리",
      "lat": 36.378029,
      "lot": 129.369339
    },
    {
      "name": "대진해수욕장",
      "address": "경상북도 영덕군 영해면 대진리",
      "lat": 36.411254,
      "lot": 129.393236
    },
    {
      "name": "오보해수욕장",
      "address": "경상북도 영덕군 영덕읍 오보리",
      "lat": 36.447863,
      "lot": 129.430892
    },
    {
      "name": "장사해수욕장",
      "address": "경상북도 영덕군 영덕읍 장사리",
      "lat": 36.467328,
      "lot": 129.436927
    },
    {
      "name": "하저해수욕장",
      "address": "경상북도 영덕군 강구면 하저리",
      "lat": 36.442065,
      "lot": 129.399163
    },
    {
      "name": "구산해수욕장",
      "address": "경상북도 울진군 기성면 구산리",
      "lat": 36.881368,
      "lot": 129.388564
    },
    {
      "name": "기성망양해수욕장",
      "address": "경상북도 울진군 기성면 망양리",
      "lat": 36.896771,
      "lot": 129.382243
    },
    {
      "name": "나곡해수욕장",
      "address": "경상북도 울진군 북면 나곡리",
      "lat": 36.978537,
      "lot": 129.417668
    },
    {
      "name": "망양정해수욕장",
      "address": "경상북도 울진군 근남면 산포리",
      "lat": 36.930515,
      "lot": 129.368739
    },
    {
      "name": "봉평해수욕장",
      "address": "경상북도 울진군 죽변면 봉평리",
      "lat": 36.941309,
      "lot": 129.40676
    },
    {
      "name": "후정해수욕장",
      "address": "경상북도 울진군 죽변면 후정리",
      "lat": 36.964788,
      "lot": 129.407837
    },
    {
      "name": "후포해수욕장",
      "address": "경상북도 울진군 후포면 삼율리",
      "lat": 36.943356,
      "lot": 129.418442
    },
    {
      "name": "덕동해수욕장",
      "address": "경상남도 통영시 욕지면 서산리 덕동",
      "lat": 34.832738,
      "lot": 128.393562
    },
    {
      "name": "도남해수욕장(통영공설해수욕장)",
      "address": "경상남도 통영시 도남동1-3 ~ 영운리 45-2",
      "lat": 34.850394,
      "lot": 128.43567
    },
    {
      "name": "봉암몽돌해수욕장",
      "address": "경상남도 통영시 한산면 추봉리 봉암",
      "lat": 34.849281,
      "lot": 128.43732
    },
    {
      "name": "비진산호빛해수욕장",
      "address": "경상남도 통영시 한산면 비진리",
      "lat": 34.83507,
      "lot": 128.414527
    },
    {
      "name": "사량 대항해수욕장",
      "address": "경상남도 통영시 사량면 금평리",
      "lat": 34.873934,
      "lot": 128.366701
    },
    {
      "name": "연대도해수욕장",
      "address": "경상남도 통영시 산양읍 연곡리 연대",
      "lat": 34.832934,
      "lot": 128.445902
    },
    {
      "name": "남일대해수욕장",
      "address": "경상남도 사천시 향촌동 710-1",
      "lat": 34.967059,
      "lot": 128.068668
    },
    {
      "name": "구조라해수욕장",
      "address": "경상남도 거제시 일운면 구조라리",
      "lat": 34.846893,
      "lot": 128.624915
    },
    {
      "name": "농소몽돌해수욕장",
      "address": "경상남도 거제시 장목면 송진포리, 농소리",
      "lat": 34.818715,
      "lot": 128.580951
    },
    {
      "name": "덕원해수욕장",
      "address": "경상남도 거제시 동부면 가배리",
      "lat": 34.862476,
      "lot": 128.651532
    },
    {
      "name": "덕포해수욕장",
      "address": "경상남도 거제시 덕포동",
      "lat": 34.861071,
      "lot": 128.636789
    },
    {
      "name": "명사해수욕장",
      "address": "경상남도 거제시 남부면 저구리",
      "lat": 34.818389,
      "lot": 128.621526
    },
    {
      "name": "물안해수욕장(옆개해수욕장)",
      "address": "경상남도 거제시 하청면 어온리",
      "lat": 34.746133,
      "lot": 128.578924
    },
    {
      "name": "여차몽돌해수욕장",
      "address": "경상남도 거제시 남부면 다포리",
      "lat": 34.774902,
      "lot": 128.67424
    },
    {
      "name": "와현모래숲해수욕장",
      "address": "경상남도 거제시 일운면 와현리",
      "lat": 34.836277,
      "lot": 128.645265
    },
    {
      "name": "죽림해수욕장",
      "address": "경상남도 거제시 거제면 오수리",
      "lat": 34.836171,
      "lot": 128.641329
    },
    {
      "name": "학동흑진주몽돌해수욕장",
      "address": "경상남도 거제시 동부면 학동리",
      "lat": 34.860078,
      "lot": 128.634328
    },
    {
      "name": "함목해수욕장",
      "address": "경상남도 거제시 남부면 갈곶리",
      "lat": 34.79887,
      "lot": 128.651436
    },
    {
      "name": "황포해수욕장",
      "address": "경상남도 거제시 장목면 구영리",
      "lat": 34.786618,
      "lot": 128.595942
    },
    {
      "name": "흥남해수욕장",
      "address": "경상남도 거제시 장목면 시방리, 외포리",
      "lat": 34.786913,
      "lot": 128.590507
    },
    {
      "name": "두곡월포해수욕장",
      "address": "경상남도 남해군 남면 당항리 535",
      "lat": 34.828226,
      "lot": 128.053821
    },
    {
      "name": "사촌해수욕장",
      "address": "경상남도 남해군 남면 임포리 1173",
      "lat": 34.787593,
      "lot": 128.051287
    },
    {
      "name": "상주은모래비치해수욕장",
      "address": "경상남도 남해군 상주면 상주리 1248",
      "lat": 34.805673,
      "lot": 128.082901
    },
    {
      "name": "선구해안해수욕장",
      "address": "경상남도 남해군 남면 선구리",
      "lat": 34.80683,
      "lot": 128.039306
    },
    {
      "name": "설리해안해수욕장",
      "address": "경상남도 남해군 미조면 송정리",
      "lat": 34.799728,
      "lot": 128.068612
    },
    {
      "name": "송정솔바람해수욕장",
      "address": "경상남도 남해군 미조면 송정리 1124-1",
      "lat": 34.790332,
      "lot": 128.072076
    },
    {
      "name": "곽지과물해수욕장",
      "address": "제주특별자치도 제주시 애월읍 곽지리 1565",
      "lat": 33.46706,
      "lot": 126.33931
    },
    {
      "name": "금능으뜸원해수욕장",
      "address": "제주특별자치도 제주시 한림읍 금능리",
      "lat": 33.41156,
      "lot": 126.23694
    },
    {
      "name": "김녕성세기해수욕장",
      "address": "제주특별자치도 제주시 구좌읍 김녕리 497-4",
      "lat": 33.496165,
      "lot": 126.823575
    },
    {
      "name": "모진이해수욕장",
      "address": "제주특별자치도 제주시 추자면 신양리 47",
      "lat": 33.3785,
      "lot": 126.98259
    },
    {
      "name": "삼양검은모래해수욕장",
      "address": "제주특별자치도 제주시 삼양동 1960-4",
      "lat": 33.511295,
      "lot": 126.511545
    },
    {
      "name": "이호테우해수욕장",
      "address": "제주특별자치도 제주시 이호1동 1665-4",
      "lat": 33.48201,
      "lot": 126.49476
    },
    {
      "name": "종달해수욕장",
      "address": "제주특별자치도 제주시 구좌읍 종달리 617-1",
      "lat": 33.48233,
      "lot": 126.83282
    },
    {
      "name": "하고수동해수욕장",
      "address": "제주특별자치도 제주시 우도면 하고수동 1200-11",
      "lat": 33.43008,
      "lot": 126.928076
    },
    {
      "name": "하도해수욕장",
      "address": "제주특별자치도 제주시 구좌읍 하도리 46-3",
      "lat": 33.46605,
      "lot": 126.82706
    },
    {
      "name": "함덕서우봉해수욕장",
      "address": "제주특별자치도 제주시 조천읍 함덕리 산14-1",
      "lat": 33.51443,
      "lot": 126.808345
    },
    {
      "name": "협재해수욕장",
      "address": "제주특별자치도 제주시 한림읍 협재리 2450",
      "lat": 33.422155,
      "lot": 126.2868
    },
    {
      "name": "홍조단괴해수욕장",
      "address": "제주특별자치도 제주시 우도면 연평리 2565-1",
      "lat": 33.43556,
      "lot": 126.930476
    },
    {
      "name": "신양섭지코지해수욕장",
      "address": "제주특별자치도 서귀포시 성산읍 신양리 186-2",
      "lat": 33.427828,
      "lot": 126.930104
    },
    {
      "name": "중문색달해수욕장",
      "address": "제주특별자치도 서귀포시 색달동 2822-9",
      "lat": 33.251076,
      "lot": 126.410637
    },
    {
      "name": "표선해비치해수욕장",
      "address": "제주특별자치도 서귀포시 표선면 표선리 44-13",
      "lat": 33.2595,
      "lot": 126.83553
    },
    {
      "name": "하효쇠소깍해수욕장",
      "address": "제주특별자치도 서귀포시 하효동 990-4",
      "lat": 33.247345,
      "lot": 126.61406
    },
    {
      "name": "화순금모래해수욕장",
      "address": "제주특별자치도 서귀포시 안덕면 화순리 851-3",
      "lat": 33.25281,
      "lot": 126.369414
    }
  ]
}
