{
  "mountains": [
    {
      "name": "가리산",
      "address": "강원도 춘천시 북산면ㆍ동면, 홍천군 두촌면ㆍ화촌면",
      "altitude": 1051.0,
      "lot": 127.956485,
      "lat": 37.871353
    },
    {
      "name": "가리왕산",
      "address": "강원도 정선군 정선읍 회동리ㆍ북평면, 평창군 진부면",
      "altitude": 1561.0,
      "lot": 128.56275,
      "lat": 37.460995
    },
    {
      "name": "가야산",
      "address": "경상남도 합천군ㆍ거창군, 경상북도 성주군",
      "altitude": 1430.0,
      "lot": 128.122518,
      "lat": 35.822563
    },
    {
      "name": "가지산",
      "address": "울산광역시 울주군, 경상북도 청도군, 경상남도 밀양시",
      "altitude": 1240.0,
      "lot": 129.003523,
      "lat": 35.619875
    },
    {
      "name": "감악산",
      "address": "경기도 파주시 적성면, 양주시 남면, 연천군 전곡읍",
      "altitude": 675.0,
      "lot": 126.969989,
      "lat": 37.941082
    },
    {
      "name": "강천산",
      "address": "전라북도 순창군 팔덕면, 전라남도 담양군 용면",
      "altitude": 584.0,
      "lot": 127.034392,
      "lat": 35.388214
    },
    {
      "name": "계룡산",
      "address": "대전광역시, 충청남도 공주시 계룡면, 논산시 상월면, 계룡시 신도안면",
      "altitude": 845.0,
      "lot": 127.210292,
      "lat": 36.361424
    },
    {
      "name": "계방산",
      "address": "강원도 홍천군 내면, 평창군 용편면ㆍ진부면",
      "altitude": 1577.0,
      "lot": 128.46543,
      "lat": 37.728268
    },
    {
      "name": "공작산",
      "address": "강원도 홍천군 동면, 화촌면",
      "altitude": 887.0,
      "lot": 128.0105456,
      "lat": 37.71593923
    },
    {
      "name": "관악산",
      "address": "서울특별시 관악구, 경기도 안양시, 과천시",
      "altitude": 629.0,
      "lot": 126.964223,
      "lat": 37.445044
    },
    {
      "name": "구병산",
      "address": "충청북도 보은군 마로면ㆍ속리산면, 경상북도 상주신 화북면, ",
      "altitude": 877.0,
      "lot": 127.8625301,
      "lat": 36.46989438
    },
    {
      "name": "금산",
      "address": "경상남도 남해군 상주면, 이동면, 삼동면",
      "altitude": 701.0,
      "lot": 127.982936,
      "lat": 34.753803
    },
    {
      "name": "금수산",
      "address": "충청북도 제천시 수산면, 단양군 적성면",
      "altitude": 1016.0,
      "lot": 128.256761,
      "lat": 36.985009
    },
    {
      "name": "금오산",
      "address": "경상북도 구미시 칠곡군 북삼읍, 김천시 남면",
      "altitude": 977.0,
      "lot": 128.300054,
      "lat": 36.092833
    },
    {
      "name": "금정산",
      "address": "부산광역시 금정구ㆍ북구, 경상남도 양산시",
      "altitude": 802.0,
      "lot": 129.050542,
      "lat": 35.280118
    },
    {
      "name": "깃대봉",
      "address": "전라남도 신안군 흑산면 홍도",
      "altitude": 368.0,
      "lot": 125.205139,
      "lat": 34.699941
    },
    {
      "name": "남산",
      "address": "경상북도 경주시 남산동, 내남면",
      "altitude": 468.0,
      "lot": 129.225369,
      "lat": 35.767661
    },
    {
      "name": "내연산",
      "address": "경상북도 포항시 송라면ㆍ청하면ㆍ죽장면, 영덕군 남정면",
      "altitude": 710.0,
      "lot": 129.258523,
      "lat": 36.263301
    },
    {
      "name": "내장산",
      "address": "전라북도 정읍시 내장동, 순창군 쌍치면ㆍ복흥면",
      "altitude": 763.0,
      "lot": 126.888994,
      "lat": 35.478299
    },
    {
      "name": "대둔산",
      "address": "충청남도 논산시 벌곡면ㆍ금산군 진산면, 전라북도 완주군 운주면",
      "altitude": 878.0,
      "lot": 127.323071,
      "lat": 36.126556
    },
    {
      "name": "대암산",
      "address": "강원도 양구군 동면, 인제군 서화면",
      "altitude": 1304.0,
      "lot": 128.13481,
      "lat": 38.21087
    },
    {
      "name": "대야산",
      "address": "경상북도 문경시 가은읍, 충청북도 괴산군 청천면",
      "altitude": 931.0,
      "lot": 127.96407,
      "lat": 36.649026
    },
    {
      "name": "덕숭산",
      "address": "충청남도 예산군 덕산면",
      "altitude": 495.0,
      "lot": 126.624461,
      "lat": 36.671737
    },
    {
      "name": "덕유산",
      "address": "전라북도 무주군ㆍ장수군, 경상남도 거창군ㆍ함양군",
      "altitude": 1614.0,
      "lot": 127.746381,
      "lat": 35.85990274
    },
    {
      "name": "덕항산",
      "address": "강원도 삼척시 신기면, 태백시 하사미동",
      "altitude": 1071.0,
      "lot": 129.001612,
      "lat": 37.318296
    },
    {
      "name": "도락산",
      "address": "충청북도 단양군  단성면, 대강면",
      "altitude": 964.0,
      "lot": 128.311091,
      "lat": 36.856368
    },
    {
      "name": "도봉산",
      "address": "서울특별시 도봉구, 경기도 의정부시 호원동ㆍ양주시 장흥면",
      "altitude": 740.0,
      "lot": 127.01547,
      "lat": 37.69883
    },
    {
      "name": "두륜산",
      "address": "전라남도 해남군 삼산면ㆍ북일면ㆍ북평면ㆍ현산면",
      "altitude": 703.0,
      "lot": 126.637535,
      "lat": 34.471848
    },
    {
      "name": "두타산",
      "address": "강원도 동해시 삼화동, 삼척시 미로면ㆍ하장면",
      "altitude": 1353.0,
      "lot": 128.9734669,
      "lat": 37.43445721
    },
    {
      "name": "마니산",
      "address": "인천광역시 강화군 화도면",
      "altitude": 469.0,
      "lot": 126.436401,
      "lat": 37.612745
    },
    {
      "name": "마이산",
      "address": "전라북도 진안군 진안읍ㆍ마령면",
      "altitude": 686.0,
      "lot": 127.411233,
      "lat": 35.760484
    },
    {
      "name": "명성산",
      "address": "강원도 철원군 갈말읍, 경기도 포천시 영북면ㆍ이동면",
      "altitude": 923.0,
      "lot": 127.337617,
      "lat": 38.090196
    },
    {
      "name": "명지산",
      "address": "경기도 가평군 북면ㆍ하면",
      "altitude": 1267.0,
      "lot": 127.4325174,
      "lat": 37.94024567
    },
    {
      "name": "모악산",
      "address": "전라북도 김제시 금산면, 전주시 완산구, 완주군 구이면",
      "altitude": 794.0,
      "lot": 127.084721,
      "lat": 35.728678
    },
    {
      "name": "무등산",
      "address": "광주광역시 동구, 전라남도 담양군 남면ㆍ화순군 이서면",
      "altitude": 1187.0,
      "lot": 127.00283,
      "lat": 35.121098
    },
    {
      "name": "무학산",
      "address": "경상남도 창원시 교방동ㆍ두척동ㆍ내서읍",
      "altitude": 761.0,
      "lot": 128.535362,
      "lat": 35.210231
    },
    {
      "name": "미륵산",
      "address": "경상남도 통영시 산양읍ㆍ봉평동",
      "altitude": 461.0,
      "lot": 128.41628,
      "lat": 34.810512
    },
    {
      "name": "민주지산",
      "address": "충청북도 영동군, 전라북도 무주군, 경상북도 김천시",
      "altitude": 1242.0,
      "lot": 127.849333,
      "lat": 36.03976612
    },
    {
      "name": "방장산",
      "address": "전라북도 고창군 신림면ㆍ정읍시 입암면, 전라남도 장성군",
      "altitude": 743.0,
      "lot": 126.75431,
      "lat": 35.455991
    },
    {
      "name": "방태산",
      "address": "강원도 인제군 기린면ㆍ상남면, 홍천군 내면",
      "altitude": 1444.0,
      "lot": 128.390341,
      "lat": 37.888141
    },
    {
      "name": "백덕산",
      "address": "강원도 평창군 방림면, 횡성군 안흥면, 영월군 수주면",
      "altitude": 1350.0,
      "lot": 128.293787,
      "lat": 37.396072
    },
    {
      "name": "백암산",
      "address": "전라남도 장성군 북하면, 전라북도 순창군 복흥면",
      "altitude": 741.0,
      "lot": 126.868349,
      "lat": 35.461171
    },
    {
      "name": "백운산(광양)",
      "address": "전라남도 광양시 진상면ㆍ옥룡면ㆍ봉강면ㆍ다압면, 구례군 간전면",
      "altitude": 1218.0,
      "lot": 127.621757,
      "lat": 35.106243
    },
    {
      "name": "백운산(정선)",
      "address": "강원도 정선군 신동읍, 평창군 미탄면",
      "altitude": 883.0,
      "lot": 128.579145,
      "lat": 37.29869
    },
    {
      "name": "백운산(포천)",
      "address": "경기도 포천시 이동면, 강원도 화천군 사내면",
      "altitude": 904.0,
      "lot": 127.492505,
      "lat": 38.130579
    },
    {
      "name": "변산",
      "address": "전라북도 부안군 변산면, 상서면, 진서면",
      "altitude": 508.0,
      "lot": 126.620083,
      "lat": 35.679818
    },
    {
      "name": "북한산",
      "address": "서울특별시 강북구ㆍ성북구ㆍ종로구ㆍ은평구, 경기도 고양시ㆍ양주시",
      "altitude": 837.0,
      "lot": 126.978056,
      "lat": 37.658657
    },
    {
      "name": "비슬산",
      "address": "대구광역시 달성군 옥포면ㆍ유가면ㆍ가창면, 경상북도 청도군 각북면",
      "altitude": 1084.0,
      "lot": 128.523981,
      "lat": 35.71526
    },
    {
      "name": "삼악산",
      "address": "강원도 춘천시 서면",
      "altitude": 654.0,
      "lot": 127.612711,
      "lat": 37.920351
    },
    {
      "name": "서대산",
      "address": "충청남도 금산군 추부면ㆍ군북면, 충청북도 옥천군 군서면",
      "altitude": 904.0,
      "lot": 127.538562,
      "lat": 36.220654
    },
    {
      "name": "선운산",
      "address": "전라북도 고창군 아산면ㆍ심원면ㆍ해리면",
      "altitude": 336.0,
      "lot": 126.577097,
      "lat": 35.517657
    },
    {
      "name": "설악산",
      "address": "강원도 양양군 서면ㆍ강현면, 속초시 설악동, 인제군 북면ㆍ인제읍",
      "altitude": 1708.0,
      "lot": 128.46544,
      "lat": 38.119135
    },
    {
      "name": "성인봉",
      "address": "경상북도 울릉군 울릉읍 서면ㆍ북면",
      "altitude": 984.0,
      "lot": 130.866729,
      "lat": 37.497383
    },
    {
      "name": "소백산",
      "address": "충청북도 단양군 단양읍, 경상북도 영주시 풍기읍",
      "altitude": 1439.0,
      "lot": 128.4788661,
      "lat": 36.95786818
    },
    {
      "name": "소요산",
      "address": "경기도 동두천시, 포천시 신북면",
      "altitude": 587.0,
      "lot": 127.132813,
      "lat": 37.915914
    },
    {
      "name": "속리산",
      "address": "충청북도 보은군 내속리면, 경상북도 상주시 화북면",
      "altitude": 1057.0,
      "lot": 127.870846,
      "lat": 36.543181
    },
    {
      "name": "신불산",
      "address": "울산광역시 울주군 삼남면ㆍ상북면",
      "altitude": 1209.0,
      "lot": 129.053953,
      "lat": 35.53933
    },
    {
      "name": "연화산",
      "address": "경상남도 고성군 개천면ㆍ영현면",
      "altitude": 528.0,
      "lot": 128.26213,
      "lat": 35.063018
    },
    {
      "name": "오대산",
      "address": "강원도 강릉시 연곡면, 평창군 진부면, 홍천군 내면",
      "altitude": 1563.0,
      "lot": 128.543605,
      "lat": 37.794601
    },
    {
      "name": "오봉산",
      "address": "강원도 춘천시 북산면, 화천군 간동면",
      "altitude": 779.0,
      "lot": 127.807132,
      "lat": 38.00002881
    },
    {
      "name": "용문산",
      "address": "경기도 양평군 용문면ㆍ옥천면",
      "altitude": 1157.0,
      "lot": 127.549637,
      "lat": 37.561979
    },
    {
      "name": "용화산",
      "address": "강원도 화천군 간동면ㆍ하남면, 춘천시 사북면",
      "altitude": 878.0,
      "lot": 127.7479119,
      "lat": 38.0380386
    },
    {
      "name": "운문산",
      "address": "경상북도 청도군 운문면, 경상남도 밀양시 산내면",
      "altitude": 1188.0,
      "lot": 128.959625,
      "lat": 35.615396
    },
    {
      "name": "운악산",
      "address": "경기도 포천시 화현면, 가평군 하면",
      "altitude": 936.0,
      "lot": 127.322893,
      "lat": 37.878718
    },
    {
      "name": "운장산",
      "address": "전라북도 진안군 부귀면, 주천면, 정천면, 완주군 동상면",
      "altitude": 1126.0,
      "lot": 127.363019,
      "lat": 35.915653
    },
    {
      "name": "월악산",
      "address": "충청북도 제천시 한수면, 덕산면",
      "altitude": 1094.0,
      "lot": 128.105844,
      "lat": 36.886045
    },
    {
      "name": "월출산",
      "address": "전라남도 강진군 성전면, 영암군 영암읍ㆍ군서면ㆍ학산면",
      "altitude": 809.0,
      "lot": 126.704294,
      "lat": 34.766997
    },
    {
      "name": "유명산",
      "address": "경기도 양평군 옥천면, 가평군 설악면",
      "altitude": 862.0,
      "lot": 127.48662,
      "lat": 37.575285
    },
    {
      "name": "응봉산",
      "address": "강원도 삼척시 가곡면ㆍ원덕읍, 경상북도 울진군 북면",
      "altitude": 999.0,
      "lot": 129.230461,
      "lat": 37.076597
    },
    {
      "name": "장안산",
      "address": "전라북도 장수군 계남면, 장수읍",
      "altitude": 1237.0,
      "lot": 127.593443,
      "lat": 35.625733
    },
    {
      "name": "재약산",
      "address": "경상남도 밀양시 단장면ㆍ산내면, 울산광역시 울주군 상북면",
      "altitude": 1189.0,
      "lot": 128.97228,
      "lat": 35.557707
    },
    {
      "name": "적상산",
      "address": "전라북도 무주군 적상면",
      "altitude": 1034.0,
      "lot": 127.689936,
      "lat": 35.946508
    },
    {
      "name": "점봉산",
      "address": "강원도 인제군 인제읍ㆍ기린면, 양양군 서면",
      "altitude": 1424.0,
      "lot": 128.432476,
      "lat": 38.027861
    },
    {
      "name": "조계산",
      "address": "전라남도 순천시 송광면ㆍ승주읍",
      "altitude": 884.0,
      "lot": 127.313555,
      "lat": 35.001211
    },
    {
      "name": "주왕산",
      "address": "경상북도 청송군 부동면ㆍ청송읍, 영덕군 지품면ㆍ달산면",
      "altitude": 721.0,
      "lot": 129.162417,
      "lat": 36.389337
    },
    {
      "name": "주흘산",
      "address": "경상북도 문경시 문경읍",
      "altitude": 1106.0,
      "lot": 128.101271,
      "lat": 36.78844
    },
    {
      "name": "지리산",
      "address": "경상남도 산청군ㆍ하동군ㆍ함양군, 전라북도 남원시, 전라남도 구례군",
      "altitude": 1915.0,
      "lot": 127.730474,
      "lat": 35.336971
    },
    {
      "name": "지리산(통영)",
      "address": "경상남도 통영시 사량면",
      "altitude": 398.0,
      "lot": 128.198261,
      "lat": 34.851294
    },
    {
      "name": "천관산",
      "address": "전라남도 장흥군 관산읍, 대덕읍",
      "altitude": 723.0,
      "lot": 126.911238,
      "lat": 34.535402
    },
    {
      "name": "천마산",
      "address": "경기도 남양주시 오남읍, 화도읍",
      "altitude": 812.0,
      "lot": 127.273397,
      "lat": 37.680364
    },
    {
      "name": "천성산",
      "address": "경상남도 양산시 하북면, 상북면",
      "altitude": 922.0,
      "lot": 128.950771,
      "lat": 35.378184
    },
    {
      "name": "천태산",
      "address": "충청북도 영동군 양산면, 충청남도 금산군 제원면",
      "altitude": 715.0,
      "lot": 127.600005,
      "lat": 36.159122
    },
    {
      "name": "청량산",
      "address": "경상북도 봉화군 명호면ㆍ재산면, 안동시 도산면ㆍ예안면",
      "altitude": 870.0,
      "lot": 128.907994,
      "lat": 36.794122
    },
    {
      "name": "추월산",
      "address": "전라남도 담양군 용면, 전라북도 순창군 복흥면",
      "altitude": 731.0,
      "lot": 126.976087,
      "lat": 35.399939
    },
    {
      "name": "축령산",
      "address": "경기도 가평군 상면, 남양주시 수동면",
      "altitude": 879.0,
      "lot": 127.333923,
      "lat": 37.752705
    },
    {
      "name": "치악산",
      "address": "강원도 원주시, 횡성군, 영월군",
      "altitude": 1288.0,
      "lot": 128.055568,
      "lat": 37.365077
    },
    {
      "name": "칠갑산",
      "address": "충청남도 청양군 대치면, 정산면, 장평면",
      "altitude": 561.0,
      "lot": 126.884905,
      "lat": 36.413006
    },
    {
      "name": "태백산",
      "address": "강원도 태백시, 경상북도 봉화군 석포면",
      "altitude": 1567.0,
      "lot": 128.916532,
      "lat": 37.096337
    },
    {
      "name": "태화산",
      "address": "강원도 영월군 영월읍, 충청북도 단양군 영춘면",
      "altitude": 1027.0,
      "lot": 128.486345,
      "lat": 37.117601
    },
    {
      "name": "팔공산",
      "address": "대구광역시 동구, 경상북도 군위군 부계면, 영천시 신녕면",
      "altitude": 1193.0,
      "lot": 128.694901,
      "lat": 36.016137
    },
    {
      "name": "팔봉산",
      "address": "강원도 홍천군 서면",
      "altitude": 302.0,
      "lot": 127.695577,
      "lat": 37.696514
    },
    {
      "name": "팔영산",
      "address": "전라남도 고흥군 영남면, 점암면",
      "altitude": 609.0,
      "lot": 127.430924,
      "lat": 34.624358
    },
    {
      "name": "한라산",
      "address": "제주특별자치도",
      "altitude": 1950.0,
      "lot": 126.535756,
      "lat": 33.361578
    },
    {
      "name": "화악산",
      "address": "경기도 가평군 북면, 강원도 화천군 사내면",
      "altitude": 1468.0,
      "lot": 127.497655,
      "lat": 37.988856
    },
    {
      "name": "화왕산",
      "address": "경상남도 창녕군 고암면, 창녕읍",
      "altitude": 757.0,
      "lot": 128.531682,
      "lat": 35.547141
    },
    {
      "name": "황매산",
      "address": "경상남도 합천군 가회면ㆍ대병면, 산청군 차황면",
      "altitude": 1108.0,
      "lot": 127.974455,
      "lat": 35.495206
    },
    {
      "name": "황석산",
      "address": "경상남도 함양군 서하면, 안의면, 서상면",
      "altitude": 1190.0,
      "lot": 127.761191,
      "lat": 35.730696
    },
    {
      "name": "황악산",
      "address": "경상북도 김천시 대항면",
      "altitude": 1111.0,
      "lot": 127.966881,
      "lat": 36.117593
    },
    {
      "name": "황장산",
      "address": "경상북도 문경시 동로면",
      "altitude": 1077.0,
      "lot": 128.278063,
      "lat": 36.812895
    },
    {
      "name": "희양산",
      "address": "충청북도 괴산군 연풍면, 경상북도 문경시 가은읍",
      "altitude": 999.0,
      "lot": 128.00511,
      "lat": 36.71469
    }
  ]
}
